~Version Information									
VERS.		2.0:   CWLS log ASCII Standard -VERSION 2.0								
WRAP.		NO:   One line per depth step								
~Well Information Block									
#MNEM.UNIT	Data T	ype    Information								
#---------	--------	---    ---------------------------								
STRT.F		3380.0000:								
STOP.F		6790:00:00								
STEP.F		0.5000:								
NULL.		-999.2500:								
UWI .		EJEMPLO:  UWI								
API .		EJEMPLO:  UWI								
WELL.		EJEMPLO:  COMMON WELL NAME								
COMP.		UNKNOWN:  WELL OPERATOR								
FLD .		UNKNOWN:  FIELD								
LIC .		UNKNOWN:  AUTHORIZATION NO								
LOC .		VMM:  BASIN								
CTRY.		UNKNOWN:  COUNTRY								
STAT.		UNKNOWN:  STATE								
CNTY.		UNKNOWN:  COUNTY								
PROV.		UNKNOWN:  STATE								
SRVC.		UNKNOWN:  COMPANY								
DATE.		UNKNOWN:  LOG RUN DATE								
LONG.	"	-72.8"	9:  LONGITUDE								
LATI.	"	6.0"	0:  LATITUDE								
XCOORD.	"	1000"	00:  X COORDINATE								
YCOORD.	"	1000"	00:  Y COORDINATE								
ELEV.FT	280.0000:  ELEVATION								
TD  .FT	6869.0005:  TOTAL DEPTH								
~Parameter Information	Block								
#MNEM.UNIT	Value	Description								
#---------	--------	---    ---------------------------								
~Curve Information Block								
#MNEM.UNIT		API CODE     Curve Description								
#---------		-----------    ---------------------------								
DEPTH.F		00 000 000 000:  Index Curve								
DEN.g/cm3		00 000 000 000:								
GR .GAPI		00 000 000 000:								
DT.us/ft		00 : Sonic P wave								
DTS.us/ft		00 : Sonic Shear wave								
PHIE.v/v		00 : Effective porosity from Petrophysics								
VSH.v/v			00 : Volume of Shale from Petrophysics							
SW.v/v			00 : Water Saturation from Petrophysics							
ROCKTYPE.		00 : Rocktype from Petrophysics								
ROCK_VSH.		00 : Shale - Sand from Vsh cutoff from Petrophysics								
										
~A DEPTH	DEN	GR	DT	DTS	PHIE	VSH	SW	ROCKTYPE	ROCK_VSH	
# ...
6074.5	2.463	78.77	78.1	150.78	0.075	0.635	0.005	8	0	
6075.0	2.461	79.77	78.64	149.67	0.073	0.614	0.005	8	0	
6075.5	2.462	76.68	79.75	147.85	0.073	0.621	0.005	8	0	
6076.0	2.474	77.76	80.4	147.85	0.073	0.695	0.002	8	0	
6076.5	2.494	83.74	80.62	148.07	0.065	0.704	0.003	8	0	
6077.0	2.494	82.74	81.54	149.95	0.063	0.744	0.001	8	0	
6077.5	2.475	88.17	83.58	155.92	0.051	0.773	0.001	8	0	
6078.0	2.443	85.7	86.34	163.33	0.052	0.914	0.002	8	0	
6078.5	2.433	87.6	87.72	168.33	0.032	0.934	0.002	8	0	
6079.0	2.433	89.38	87.97	171.6	0.024	0.935	0.003	8	0	
6079.5	2.431	91.36	88.1	176.71	0.024	0.903	0.003	8	0	
6080.0	2.424	94.72	88.19	179.82	0.031	0.915	0.002	8	0	
6080.5	2.434	90.93	86.92	181.01	0.035	0.955	0.004	8	0	
6081.0	2.443	93.72	84.64	182.29	0.022	1.001	0.004	8	0	
6081.5	2.453	91.21	82.61	183.57	0.003	1.003	0.005	8	0	
6082.0	2.475	91.49	81.31	184.84	0.003	1.005	0.002	8	0	
6082.5	2.460	85.72	82.28	186.49	0.001	1.002	0.004	8	0	
6083.0	2.455	86.72	83.55	186.56	0.003	0.994	0.005	8	0	
6083.5	2.424	86.7	83.45	184.7	0.002	0.995	0.005	8	0	
6084.0	2.415	91.46	82.79	182.83	0.002	0.994	0.001	8	0	
6084.5	2.400	97.44	83.25	180.97	0.002	0.983	0.002	8	0	
6085.0	2.412	96.62	84.22	179.11	0.013	0.951	0.002	8	0	
6085.5	2.421	88.85	84.22	178.26	0.023	0.942	0.002	8	0	
6086.0	2.451	79.11	84.95	177.43	0.023	0.932	0.004	8	0	
6086.5	2.474	76.43	86.69	176.67	0.024	0.902	0.004	8	0	
6087.0	2.480	77.93	89.67	174.4	0.025	0.752	0.001	8	0	
6087.5	2.455	79.83	92.03	171	0.062	0.773	0.001	8	0	
6088.0	2.412	85.34	92.98	168.92	0.061	0.765	-0.116	8	0	
6088.5	2.395	83.59	93.98	165.89	0.061	0.633	-0.129	8	0	
6089.0	2.395	81.18	93.52	162.72	0.093	0.573	-0.119	8	0	
6089.5	2.420	73.42	91.85	161.32	0.102	0.402	-0.099	8	0	
6090.0	2.412	73.67	90.69	160.59	0.133	0.191	-0.015	4	1	
6090.5	2.381	68.39	89.76	159.45	0.181	0.112	-0.009	2	1	
6091.0	2.334	59.89	88.05	159.61	0.213	0.071	-0.016	1	1	
6091.5	2.291	55.63	85.82	160.69	0.225	0.052	-0.017	1	1	
6092.0	2.315	57.61	84.07	161.55	0.223	0.051	-0.015	1	1	
6092.5	2.314	64.86	83.48	161.8	0.225	0.052	-0.006	1	1	
6093.0	2.302	63.36	83.89	160.45	0.221	0.054	-0.015	1	1	
6093.5	2.292	62.37	84.6	159.17	0.223	0.063	-0.017	1	1	
6094.0	2.325	65.15	84.83	158.98	0.215	0.124	-0.015	1	1	
6094.5	2.375	69.41	84.43	160.5	0.191	0.151	-0.017	2	1	
6095.0	2.373	68.85	85.46	161.55	0.192	0.131	-0.019	2	1	
6095.5	2.321	61.33	87.12	161	0.211	0.074	-0.018	1	1	
6096.0	2.294	55.81	88.4	162.31	0.233	0.052	-0.019	1	1	
6096.5	2.290	53.88	89.21	163.82	0.222	0.065	-0.029	1	1	
6097.0	2.320	53.37	88	163.48	0.212	0.095	-0.019	1	1	
6097.5	2.333	55.61	86.16	160.67	0.201	0.112	-0.015	2	1	
6098.0	2.345	54.49	84.52	156.79	0.202	0.114	-0.006	2	1	
6098.5	2.374	56.25	81.95	155.1	0.183	0.125	-0.005	2	1	
6099.0	2.423	57.02	80.4	153.37	0.165	0.173	-0.008	3	1	
6099.5	2.450	61.39	80.5	152.29	0.133	0.201	-0.008	4	1	
6100.0	2.452	61.39	81.84	152.45	0.134	0.195	0.001	4	1	
6100.5	2.442	62.37	84.15	152.3	0.143	0.134	0.001	4	1	
6101.0	2.431	69.16	85.64	153.75	0.163	0.114	0.004	3	1	
6101.5	2.405	70.94	86.12	154.97	0.175	0.105	0.004	3	1	
6102.0	2.375	66.45	86.06	155.81	0.185	0.092	-0.007	2	1	
6102.5	2.355	54.4	86.09	156.97	0.193	0.084	-0.006	2	1	
6103.0	2.351	52.62	86	158.71	0.194	0.075	-0.017	2	1	
6103.5	2.341	51.35	85.69	159.48	0.205	0.052	-0.015	2	1	
6104.0	2.330	54.21	85.36	159.11	0.201	0.071	-0.019	2	1	
6104.5	2.322	49.2	84.56	159.46	0.215	0.075	-0.019	1	1	
6105.0	2.312	46.96	83.52	158.49	0.211	0.051	-0.015	1	1	
6105.5	2.303	42.6	82.44	157.11	0.223	0.052	-0.016	1	1	
6106.0	2.311	46.61	81.17	155.64	0.212	0.051	-0.016	1	1	
6106.5	2.340	48.35	79.47	152.58	0.195	0.123	-0.008	2	1	
6107.0	2.380	49.62	77.57	146.11	0.162	0.161	0.003	3	1	
6107.5	2.403	47.79	76.17	140.96	0.152	0.203	0.015	3	1	
6108.0	2.391	47.31	75.07	139.97	0.155	0.271	0.011	3	1	
6108.5	2.405	45.79	73.96	139.4	0.131	0.342	0.025	4	1	
6109.0	2.435	48.11	72.85	139.24	0.112	0.565	0.031	5	1	
6109.5	2.462	46.59	75.05	141.89	0.075	0.605	0.023	8	0	
6110.0	2.455	46.11	79.95	152.45	0.075	0.673	0.004	8	0	
6110.5	2.441	44.44	83.91	166.61	0.065	0.764	-0.009	8	0	
6111.0	2.433	48.7	86.78	176.1	0.054	0.681	-0.019	8	0	
6111.5	2.400	62.48	88.34	183.22	0.071	1.003	0.003	8	0	
6112.0	2.382	75.93	88.4	190.05	0.005	1.001	0.004	8	0	
6112.5	2.372	84.45	87.25	188.77	0.005	1.005	0.001	8	0	
6113.0	2.383	88.96	85.16	177.21	0.001	1.005	0.002	8	0	
6113.5	2.402	87.42	83.48	164.03	0.005	1.004	0.004	8	0	
6114.0	2.430	89.96	82.87	154.05	0.001	1.001	0.005	8	0	
6114.5	2.460	86.95	81.75	147.93	0.002	1.003	0.001	8	0	
6115.0	2.475	82.27	81.27	145.32	0.001	0.993	0.002	8	0	
6115.5	2.474	81.74	83.23	151.07	0.001	0.933	0.005	8	0	
6116.0	2.450	81.24	86.77	166.77	0.025	0.862	0.005	8	0	
6116.5	2.433	80.36	93.59	183.73	0.032	0.601	0.003	8	0	
6117.0	2.404	74.85	98.18	195.78	0.091	0.551	-0.069	8	0	
6117.5	2.360	70.09	97.53	205.91	0.113	0.685	0.005	4	0	
6118.0	2.342	81.19	96.44	211.7	0.085	0.635	-0.087	8	0	
6118.5	2.353	89.46	94.83	206.19	0.094	0.532	-0.097	8	0	
6119.0	2.371	94.72	93.38	196.62	0.114	0.313	-0.017	4	0	
6119.5	2.385	84.71	92.69	178.89	0.161	0.202	0.003	2	1	
6120.0	2.370	78.96	91.94	172.84	0.194	0.184	0.014	2	1	
6120.5	2.355	71.43	91.36	159.61	0.204	0.173	0.011	1	1	
6121.0	2.343	72.17	90.95	158.91	0.204	0.154	0.001	1	1	
6121.5	2.342	71.16	90.03	159.11	0.205	0.111	0.012	1	1	
6122.0	2.333	72.92	88.64	158.33	0.201	0.093	0.014	1	1	
6122.5	2.311	73.89	87.68	156.4	0.213	0.095	0.014	1	1	
6123.0	2.301	70.66	88.55	155.2	0.223	0.074	0.015	1	1	
6123.5	2.284	67.77	89.32	155.04	0.232	0.072	0.023	1	1	
6124.0	2.290	63.04	89.91	154.68	0.222	0.065	0.025	1	1	
6124.5	2.284	63.01	90.27	154.13	0.235	0.052	0.025	1	1	
6125.0	2.304	61.89	87.55	152.77	0.235	0.051	0.004	1	1	
6125.5	2.320	60.37	85.48	150.95	0.223	0.125	0.004	1	1	
6126.0	2.355	58.13	85.68	159.32	0.203	0.051	0.021	2	1	
6126.5	2.370	59.25	85.59	157.72	0.204	0.054	0.005	2	1	
6127.0	2.392	56.5	86.44	156.8	0.191	0.051	0.003	2	1	
6127.5	2.415	51.99	88.54	157.54	0.193	0.051	0.011	2	1	
6128.0	2.394	45.35	90.59	159.38	0.195	0.054	0.012	2	1	
6128.5	2.363	45.35	91.58	151.1	0.203	0.053	0.023	2	1	
6129.0	2.321	46.61	91.44	152.61	0.225	0.052	0.024	1	1	
6129.5	2.294	48.09	90.13	151.84	0.231	0.053	0.023	1	1	
6130.0	2.275	45.54	89.34	148.63	0.241	0.052	0.032	1	1	
6130.5	2.271	45	89.7	145.46	0.245	0.053	0.032	1	1	
6131.0	2.243	41.16	89.27	142.76	0.255	0.051	0.032	1	1	
6131.5	2.230	35.95	88.27	139.89	0.254	0.051	0.034	1	1	
6132.0	2.225	32.73	85.91	136.69	0.254	0.054	0.023	1	1	
6132.5	2.265	35.57	85.15	133.67	0.241	0.103	0.021	1	1	
6133.0	2.315	46.11	81.74	131.41	0.205	0.315	0.021	1	1	
6133.5	2.395	57.72	76.5	151.86	0.131	0.533	0.002	4	1	
6134.0	2.451	65.01	75.81	153.73	0.085	0.621	0.054	6	0	
6134.5	2.481	66.74	75.77	154.49	0.065	0.692	0.003	8	0	
6135.0	2.480	70.42	76.53	152.32	0.062	0.682	0.003	8	0	
6135.5	2.451	72.79	76.53	148.83	0.061	0.724	0.002	8	0	
6136.0	2.462	81.55	79.24	146.53	0.061	0.724	0.001	8	0	
6136.5	2.505	80.55	83.31	144.23	0.055	1.005	0.001	8	0	
6137.0	2.540	82.44	83.49	144.55	0.003	1.002	0.002	8	0	
6137.5	2.541	76.68	82.75	147.13	0.004	1.004	0.002	8	0	
6138.0	2.524	73.42	82.06	149.42	0.005	0.975	0.003	8	0	
6138.5	2.482	74.14	81.4	149.22	0.013	1.005	0.001	8	0	
6139.0	2.470	75.67	80.74	149.65	0.004	1.001	0.001	8	0	
6139.5	2.463	77.68	79.8	152.02	0.001	1.005	0.001	8	0	
6140.0	2.465	71.98	79.68	153.38	0.003	1.004	0.004	8	0	
6140.5	2.474	70.97	81.72	155.45	0.001	1.001	0.003	8	0	
6141.0	2.465	67.21	84.05	157.01	0.001	1.003	0.003	8	0	
6141.5	2.465	70.41	84.83	156.81	0.005	0.995	0.002	8	0	
6142.0	2.441	68.16	85.57	156.18	0.002	0.864	0.002	8	0	
6142.5	2.440	69.89	86.33	155.66	0.024	0.685	0.005	8	0	
6143.0	2.435	68.46	86.58	154.57	0.065	0.545	0.021	8	0	
6143.5	2.413	67.46	86.59	154.09	0.092	0.434	0.001	5	0	
6144.0	2.381	58.21	86.64	154.46	0.124	0.371	0.003	4	1	
6144.5	2.364	57.55	87.66	155.41	0.142	0.331	0.005	3	1	
6145.0	2.353	56.03	88.35	156.66	0.141	0.294	0.004	3	1	
6145.5	2.364	62.44	88.26	157.18	0.154	0.234	0.003	3	1	
6146.0	2.352	57.62	88.29	158.18	0.164	0.195	0.002	2	1	
6146.5	2.354	53.88	88.65	159.2	0.182	0.162	0.005	2	1	
6147.0	2.362	50.97	89.01	158.1	0.182	0.152	0.001	2	1	
