~Version Information									
VERS.		2.0:   CWLS log ASCII Standard -VERSION 2.0								
WRAP.		NO:   One line per depth step								
~Well Information Block									
#MNEM.UNIT	Data T	ype    Information								
#---------	--------	---    ---------------------------								
STRT.F		3380.0000:								
STOP.F		6790:00:00								
STEP.F		0.5000:								
NULL.		-999.2500:								
UWI .		EJEMPLO:  UWI								
API .		EJEMPLO:  UWI								
WELL.		EJEMPLO:  COMMON WELL NAME								
COMP.		UNKNOWN:  WELL OPERATOR								
FLD .		UNKNOWN:  FIELD								
LIC .		UNKNOWN:  AUTHORIZATION NO								
LOC .		VMM:  BASIN								
CTRY.		UNKNOWN:  COUNTRY								
STAT.		UNKNOWN:  STATE								
CNTY.		UNKNOWN:  COUNTY								
PROV.		UNKNOWN:  STATE								
SRVC.		UNKNOWN:  COMPANY								
DATE.		UNKNOWN:  LOG RUN DATE								
LONG.	"	-72.8"	9:  LONGITUDE								
LATI.	"	6.0"	0:  LATITUDE								
XCOORD.	"	1000"	00:  X COORDINATE								
YCOORD.	"	1000"	00:  Y COORDINATE								
ELEV.FT	280.0000:  ELEVATION								
TD  .FT	6869.0005:  TOTAL DEPTH								
~Parameter Information	Block								
#MNEM.UNIT	Value	Description								
#---------	--------	---    ---------------------------								
~Curve Information Block								
#MNEM.UNIT		API CODE     Curve Description								
#---------		-----------    ---------------------------								
DEPTH.F		00 000 000 000:  Index Curve								
DEN.g/cm3		00 000 000 000:								
GR .GAPI		00 000 000 000:								
DT.us/ft		00 : Sonic P wave								
DTS.us/ft		00 : Sonic Shear wave								
PHIE.v/v		00 : Effective porosity from Petrophysics								
VSH.v/v			00 : Volume of Shale from Petrophysics							
SW.v/v			00 : Water Saturation from Petrophysics							
ROCKTYPE.		00 : Rocktype from Petrophysics								
ROCK_VSH.		00 : Shale - Sand from Vsh cutoff from Petrophysics								
										
~A DEPTH	DEN	GR	DT	DTS	PHIE	VSH	SW	ROCKTYPE	ROCK_VSH	
# ...
4246.0	2.413	70.34	81.1	170.26	0.053	0.891	0.171	8	0	
4246.5	2.440	76.11	80.63	168.89	0.024	1.003	0.002	8	0	
4247.0	2.461	79.61	82.99	169.05	0.005	1.002	0.003	8	0	
4247.5	2.460	85.12	85.35	174.08	0.004	1.002	0.005	8	0	
4248.0	2.471	84.12	87.71	179.18	0.003	1.004	0.003	8	0	
4248.5	2.483	83.9	90.07	181.44	0.001	0.985	0.003	8	0	
4249.0	2.474	82.4	90.27	183.81	0.012	0.891	0.005	8	0	
4249.5	2.432	81.89	89.52	185.64	0.024	0.844	0.001	8	0	
4250.0	2.394	83.18	90.14	185.05	0.041	0.844	0.001	8	0	
4250.5	2.373	81.76	90.31	182.88	0.044	0.861	0.001	8	0	
4251.0	2.372	80.27	89.17	180.74	0.031	0.932	0.001	8	0	
4251.5	2.384	77.88	87.69	177.02	0.021	0.983	0.005	8	0	
4252.0	2.401	78.05	85.15	174.51	0.005	1.002	0.001	8	0	
4252.5	2.422	80.05	83.3	180.92	0.001	1.002	0.003	8	0	
4253.0	2.454	88.6	84.05	191.75	0.003	1.002	0.002	8	0	
4253.5	2.455	94.57	86.7	197.3	0.001	1.002	0.003	8	0	
4254.0	2.445	92.29	92.26	200.17	0.004	1.001	0.002	8	0	
4254.5	2.445	91.14	96.75	204.87	0.002	1.004	0.004	8	0	
4255.0	2.422	88.95	97.18	208.13	0.005	1.001	0.004	8	0	
4255.5	2.414	96.21	96.57	208.13	0.001	1.003	0.001	8	0	
4256.0	2.392	87.69	95.58	204.65	0.003	1.003	0.003	8	0	
4256.5	2.403	86.45	92.42	200.58	0.003	1.004	0.004	8	0	
4257.0	2.433	80.52	89.07	199.43	0.003	1.001	0.005	8	0	
4257.5	2.453	83.75	86.52	198.28	0.001	1.004	0.003	8	0	
4258.0	2.452	79.73	86.56	197.13	0.004	1.001	0.005	8	0	
4258.5	2.444	80.16	88.98	196.64	0.005	0.984	0.003	8	0	
4259.0	2.420	87.96	92.42	197.41	0.005	0.771	0.001	8	0	
4259.5	2.413	86.45	96.72	198.76	0.053	0.465	0.104	8	0	
4260.0	2.381	82.5	99.82	203.84	0.114	0.112	0.085	5	1	
4260.5	2.315	71.72	103.12	214.11	0.212	0.072	0.044	1	1	
4261.0	2.245	75.43	106.4	226.98	0.254	0.062	0.015	1	1	
4261.5	2.205	69.34	107.44	236.5	0.281	0.052	-0.008	1	1	
4262.0	2.194	61.88	105.82	238.91	0.284	0.053	-0.017	1	1	
4262.5	2.202	54.93	103.98	236.43	0.272	0.051	-0.016	1	1	
4263.0	2.210	57.21	102.16	231.74	0.275	0.053	-0.016	1	1	
4263.5	2.231	60.5	100.23	226.52	0.262	0.054	-0.006	1	1	
4264.0	2.250	63.23	97.63	221.14	0.254	0.052	-0.006	1	1	
4264.5	2.265	65.97	94.88	217.72	0.243	0.055	0.002	1	1	
4265.0	2.262	66.64	95.78	216.48	0.243	0.054	0.014	1	1	
4265.5	2.271	61.13	94.98	214.54	0.241	0.051	0.032	1	1	
4266.0	2.283	60.92	93.46	210.52	0.234	0.065	0.054	1	1	
4266.5	2.301	59.66	94.06	206.8	0.223	0.092	0.081	1	1	
4267.0	2.322	65.95	93.29	203.85	0.211	0.093	0.102	1	1	
4267.5	2.331	66.15	93.88	203.83	0.205	0.103	0.101	2	1	
4268.0	2.343	68.4	95.79	205.9	0.202	0.084	0.111	2	1	
4268.5	2.320	66.11	97.43	206.95	0.213	0.094	0.094	1	1	
4269.0	2.311	68.89	98.69	207.99	0.211	0.093	0.091	1	1	
4269.5	2.292	65.91	99.75	211.6	0.223	0.094	0.091	1	1	
4270.0	2.292	64.67	101.22	214.64	0.234	0.082	0.074	1	1	
4270.5	2.275	58.4	102.78	214.52	0.243	0.065	0.061	1	1	
4271.0	2.253	60.13	103.53	214.4	0.254	0.052	0.041	1	1	
4271.5	2.234	56.98	102.9	214.29	0.264	0.052	0.031	1	1	
4272.0	2.210	58.47	101.57	214.17	0.261	0.052	0.022	1	1	
4272.5	2.202	53.21	100.28	214.05	0.261	0.055	0.015	1	1	
4273.0	2.224	54.09	99	213.94	0.263	0.053	0.014	1	1	
4273.5	2.240	54.84	98.68	213.82	0.255	0.055	0.031	1	1	
4274.0	2.261	57.34	99.52	213.71	0.244	0.052	0.063	1	1	
4274.5	2.280	50.77	100.06	213.59	0.235	0.102	0.085	1	1	
4275.0	2.295	47.78	100.02	213.47	0.214	0.125	0.112	1	1	
4275.5	2.314	48.76	99.74	213.36	0.203	0.224	0.133	2	1	
4276.0	2.325	52.27	98.81	213.24	0.174	0.254	0.123	2	1	
4276.5	2.325	52.36	97.66	213.13	0.165	0.295	0.122	2	1	
4277.0	2.331	52.38	97.07	213.01	0.152	0.371	0.133	3	1	
4277.5	2.344	54.46	97.11	212.89	0.133	0.425	0.133	4	1	
4278.0	2.362	56.63	95.29	212.78	0.122	0.484	0.135	4	1	
4278.5	2.374	54.24	93.61	212.66	0.104	0.534	0.131	5	1	
4279.0	2.373	57.42	92.93	210.42	0.093	0.613	0.145	5	0	
4279.5	2.384	58.92	91.64	206.39	0.084	0.722	0.193	8	0	
4280.0	2.385	69.05	91.27	201.96	0.052	0.853	0.203	8	0	
4280.5	2.391	74.1	91.9	199.63	0.034	0.981	0.002	8	0	
4281.0	2.402	85.13	93.19	200.62	0.002	1.002	0.003	8	0	
4281.5	2.410	89.88	94.82	202.93	0.005	0.964	0.001	8	0	
4282.0	2.403	89.88	97.4	209.8	0.014	0.804	0.002	8	0	
4282.5	2.381	84.37	99.24	217.93	0.054	0.765	0.181	8	0	
4283.0	2.343	81.1	103.01	224.2	0.064	0.741	0.142	8	0	
4283.5	2.345	78.14	106.74	228.53	0.061	0.721	0.183	8	0	
4284.0	2.330	77.94	106.58	230.17	0.065	0.722	0.194	8	0	
4284.5	2.304	71.97	102.7	229.98	0.072	0.432	0.165	8	0	
4285.0	2.291	70.98	96.82	226.37	0.143	0.451	0.192	3	1	
4285.5	2.293	71.43	94.75	218.53	0.135	0.524	0.184	3	1	
4286.0	2.313	73.41	93.36	208.39	0.114	0.573	0.112	4	0	
4286.5	2.341	85.25	92.12	201.19	0.094	0.604	0.005	8	0	
4287.0	2.385	82.49	93.87	200.87	0.084	0.635	0.004	8	0	
4287.5	2.401	83.42	98.04	207.26	0.072	1.003	0.005	8	0	
4288.0	2.403	67.56	103.93	215.86	0.002	0.891	0.003	8	0	
4288.5	2.374	66.14	105.65	221.69	0.021	0.442	0.005	8	0	
4289.0	2.313	59.22	104.92	224.85	0.132	0.381	0.151	3	1	
4289.5	2.282	57.98	105.81	227.72	0.155	0.373	0.164	2	1	
4290.0	2.272	56.87	105.98	230.6	0.162	0.375	0.162	2	1	
4290.5	2.263	57.21	105.64	233.47	0.163	0.365	0.172	2	1	
4291.0	2.263	62.23	104.89	233.02	0.164	0.364	0.184	2	1	
4291.5	2.284	59.75	103.59	230.56	0.164	0.404	0.191	2	1	
4292.0	2.293	56.02	102	229.41	0.155	0.443	0.195	3	1	
4292.5	2.294	49.23	100.06	228.26	0.141	0.463	0.191	3	1	
4293.0	2.313	48	98.02	227.11	0.134	0.511	0.132	4	1	
4293.5	2.344	47.89	96.78	221.64	0.114	0.542	0.101	5	0	
4294.0	2.372	53.16	96.9	217.08	0.093	0.552	0.083	5	0	
4294.5	2.380	56.12	97.64	217.92	0.095	0.554	0.073	5	0	
4295.0	2.382	61.38	99.07	220.88	0.091	0.904	0.001	8	0	
4295.5	2.371	59.41	100.53	225.67	0.023	0.555	0.001	8	0	
4296.0	2.372	58.86	101.04	229.97	0.101	0.513	0.091	5	0	
4296.5	2.351	62.09	101.34	232.36	0.115	0.475	0.105	5	0	
4297.0	2.333	65.83	101.57	232.6	0.122	0.473	0.114	4	1	
4297.5	2.313	67.37	101.97	231.97	0.125	0.472	0.125	4	1	
4298.0	2.312	65.89	102.62	230.36	0.123	0.485	0.123	4	1	
4298.5	2.320	61.93	103.15	228.98	0.124	0.473	0.123	4	1	
4299.0	2.321	60.95	102.12	228.69	0.122	0.501	0.111	4	1	
4299.5	2.314	54.93	102.7	228.41	0.121	0.465	0.121	4	1	
4300.0	2.313	53.4	103.66	228.01	0.122	0.473	0.125	4	1	
4300.5	2.312	53.15	102.26	227.62	0.125	0.471	0.123	4	1	
4301.0	2.311	50.39	101.54	227.22	0.124	0.504	0.125	4	1	
4301.5	2.320	50.83	100.76	226.82	0.111	0.524	0.111	4	1	
4302.0	2.321	50.96	98.57	226.43	0.112	0.545	0.115	5	0	
4302.5	2.342	57.71	96.4	223.94	0.105	0.555	0.095	5	0	
4303.0	2.351	59.25	95.87	219.98	0.101	0.564	0.003	8	0	
4303.5	2.365	56.4	94.61	216.63	0.094	0.565	0.003	8	0	
4304.0	2.373	52.67	92.11	212.36	0.094	0.555	0.004	8	0	
4304.5	2.384	52	91.81	207.76	0.082	0.552	0.001	8	0	
4305.0	2.383	52.71	92.53	202.53	0.091	0.511	0.062	5	0	
4305.5	2.374	54.86	92.03	198.35	0.101	0.451	0.073	5	0	
4306.0	2.363	52.02	93.38	198.08	0.114	0.422	0.095	5	1	
4306.5	2.362	49.26	95.11	197.81	0.123	0.394	0.195	5	1	
4307.0	2.375	49.92	95.38	198.83	0.124	0.385	0.204	5	1	
4307.5	2.370	53.18	95.65	201.93	0.123	0.364	0.214	5	1	
4308.0	2.371	62.2	96.28	201.09	0.125	0.362	0.233	4	1	
4308.5	2.345	69.87	96.84	200.28	0.133	0.364	0.221	4	1	
4309.0	2.321	73.38	97.23	202.58	0.143	0.405	0.215	3	1	
4309.5	2.300	70.58	98.22	204.88	0.151	0.405	0.202	2	1	
4310.0	2.301	66.61	99.03	207.18	0.155	0.405	0.194	2	1	
4310.5	2.302	72.55	99.22	202.48	0.154	0.385	0.195	2	1	
4311.0	2.304	76.6	99.27	211.78	0.154	0.591	0.195	2	1	
4311.5	2.301	78.11	99.78	213.35	0.102	0.592	0.125	8	0	
4312.0	2.311	68.68	100.67	214	0.104	0.591	0.132	8	0	
4312.5	2.310	65.17	101.9	214.5	0.094	0.595	0.141	8	0	
4313.0	2.313	62.38	103.2	214.97	0.092	0.594	0.133	8	0	
4313.5	2.324	64.11	104.09	215.58	0.095	0.583	0.143	8	0	
4314.0	2.323	62.02	104.52	216.56	0.104	0.585	0.125	8	0	
4314.5	2.310	60.29	104.73	219	0.101	0.582	0.114	8	0	
4315.0	2.305	60.04	105.16	221.54	0.105	0.582	0.105	8	0	
4315.5	2.301	56.97	105.12	223.84	0.105	0.531	0.125	8	0	
4316.0	2.295	60	105.46	227.19	0.114	0.285	0.145	4	0	
4316.5	2.290	59.61	106.4	215.21	0.171	0.263	0.184	2	1	
4317.0	2.280	63.76	107.06	227.97	0.184	0.284	0.173	2	1	
4317.5	2.303	63.76	109.3	233.77	0.182	0.275	0.174	2	1	
4318.0	2.305	60.91	110.68	234.78	0.181	0.261	0.171	2	1	
4318.5	2.305	63.42	111.08	234.9	0.172	0.264	0.183	2	1	
