~Version Information									
VERS.		2.0:   CWLS log ASCII Standard -VERSION 2.0								
WRAP.		NO:   One line per depth step								
~Well Information Block									
#MNEM.UNIT	Data T	ype    Information								
#---------	--------	---    ---------------------------								
STRT.F		3380.0000:								
STOP.F		6790:00:00								
STEP.F		0.5000:								
NULL.		-999.2500:								
UWI .		EJEMPLO:  UWI								
API .		EJEMPLO:  UWI								
WELL.		EJEMPLO:  COMMON WELL NAME								
COMP.		UNKNOWN:  WELL OPERATOR								
FLD .		UNKNOWN:  FIELD								
LIC .		UNKNOWN:  AUTHORIZATION NO								
LOC .		VMM:  BASIN								
CTRY.		UNKNOWN:  COUNTRY								
STAT.		UNKNOWN:  STATE								
CNTY.		UNKNOWN:  COUNTY								
PROV.		UNKNOWN:  STATE								
SRVC.		UNKNOWN:  COMPANY								
DATE.		UNKNOWN:  LOG RUN DATE								
LONG.	"	-72.8"	9:  LONGITUDE								
LATI.	"	6.0"	0:  LATITUDE								
XCOORD.	"	1000"	00:  X COORDINATE								
YCOORD.	"	1000"	00:  Y COORDINATE								
ELEV.FT	280.0000:  ELEVATION								
TD  .FT	6869.0005:  TOTAL DEPTH								
~Parameter Information	Block								
#MNEM.UNIT	Value	Description								
#---------	--------	---    ---------------------------								
~Curve Information Block								
#MNEM.UNIT		API CODE     Curve Description								
#---------		-----------    ---------------------------								
DEPTH.F		00 000 000 000:  Index Curve								
DEN.g/cm3		00 000 000 000:								
GR .GAPI		00 000 000 000:								
DT.us/ft		00 : Sonic P wave								
DTS.us/ft		00 : Sonic Shear wave								
PHIE.v/v		00 : Effective porosity from Petrophysics								
VSH.v/v			00 : Volume of Shale from Petrophysics							
SW.v/v			00 : Water Saturation from Petrophysics							
ROCKTYPE.		00 : Rocktype from Petrophysics								
ROCK_VSH.		00 : Shale - Sand from Vsh cutoff from Petrophysics								
										
~A DEPTH	DEN	GR	DT	DTS	PHIE	VSH	SW	ROCKTYPE	ROCK_VSH	
# ...
5195.0	2.480	88	96.51	193.95	0.055	0.715	0.005	8	0	
5195.5	2.493	84.94	96.69	194.59	0.053	0.691	0.005	8	0	
5196.0	2.483	89.69	96.86	197.07	0.064	0.753	0.001	8	0	
5196.5	2.462	91.84	97.04	199.56	0.051	0.804	0.005	8	0	
5197.0	2.452	93.82	97.21	202.05	0.054	0.843	0.001	8	0	
5197.5	2.442	92.1	97.39	205.03	0.044	1.003	0.001	8	0	
5198.0	2.420	89.47	97.56	209.67	0.004	0.802	0.002	8	0	
5198.5	2.415	94.73	97.78	216.26	0.052	0.823	0.005	8	0	
5199.0	2.405	96.2	97.75	219.7	0.054	0.821	0.002	8	0	
5199.5	2.435	99.05	98.62	222.21	0.051	0.861	0.001	8	0	
5200.0	2.445	98.59	99.65	226.41	0.032	1.005	0.004	8	0	
5200.5	2.443	102.81	99.65	230.44	0.005	0.852	0.001	8	0	
5201.0	2.413	110.48	99.65	233.03	0.042	0.872	0.002	8	0	
5201.5	2.392	106.22	99.65	233.03	0.044	0.963	0.005	8	0	
5202.0	2.394	102.06	99.65	234.16	0.015	1.004	0.002	8	0	
5202.5	2.405	97.01	99.76	235.3	0.005	1.004	0.004	8	0	
5203.0	2.423	98.73	99.7	235.3	0.004	1.003	0.003	8	0	
5203.5	2.433	100.93	99.88	235.3	0.001	0.961	0.003	8	0	
5204.0	2.432	99.19	100.11	235.3	0.015	0.971	0.005	8	0	
5204.5	2.425	100.21	100.31	235.3	0.015	0.941	0.005	8	0	
5205.0	2.410	97.46	100.63	235.3	0.023	0.971	0.003	8	0	
5205.5	2.420	94.82	100.63	235.3	0.015	0.924	0.004	8	0	
5206.0	2.433	90.21	100.63	235.3	0.025	0.951	0.002	8	0	
5206.5	2.443	88.75	100.14	235.3	0.025	1.004	0.005	8	0	
5207.0	2.442	97.95	99.65	234.17	0.001	1.005	0.004	8	0	
5207.5	2.464	99.71	99.65	231.97	0.005	1.002	0.004	8	0	
5208.0	2.483	102.68	99.65	229.81	0.003	1.004	0.004	8	0	
5208.5	2.482	97.42	99.65	227.66	0.002	1.001	0.001	8	0	
5209.0	2.462	96.76	98.96	225.5	0.002	1.005	0.003	8	0	
5209.5	2.464	91.03	97.54	223.35	0.002	1.005	0.001	8	0	
5210.0	2.474	85.33	96.31	221.19	0.004	1.003	0.001	8	0	
5210.5	2.493	84.45	95.31	219.03	0.004	1.002	0.002	8	0	
5211.0	2.480	86.18	94.31	216.88	0.002	1.001	0.003	8	0	
5211.5	2.480	90.34	93.25	214.72	0.002	1.002	0.005	8	0	
5212.0	2.493	94.24	92.25	210.52	0.001	1.003	0.002	8	0	
5212.5	2.505	101.9	91.32	208.89	0.001	1.001	0.001	8	0	
5213.0	2.501	103.65	90.33	210.39	0.005	1.005	0.005	8	0	
5213.5	2.495	103.12	90.19	207.91	0.003	0.883	0.002	8	0	
5214.0	2.494	97.64	90.57	206.56	0.031	0.883	0.005	8	0	
5214.5	2.480	93.91	90.41	208.86	0.033	0.892	0.005	8	0	
5215.0	2.475	86.93	89.98	206.52	0.032	0.902	0.005	8	0	
5215.5	2.454	88.02	89.19	204.41	0.035	1.004	0.003	8	0	
5216.0	2.452	92.63	88.74	205.43	0.005	1.005	0.002	8	0	
5216.5	2.451	103.16	88.82	204.67	0.005	1.005	0.002	8	0	
5217.0	2.465	100.3	88.82	203.9	0.003	1.001	0.001	8	0	
5217.5	2.464	91.36	88.82	202.43	0.001	1.002	0.004	8	0	
5218.0	2.465	86.21	88.82	199.63	0.004	1.003	0.002	8	0	
5218.5	2.453	87.53	88.6	193.99	0.005	1.005	0.001	8	0	
5219.0	2.445	90.31	88.61	189.64	0.003	1.003	0.004	8	0	
5219.5	2.423	88.78	89.42	188.82	0.005	1.003	0.002	8	0	
5220.0	2.432	90.79	90.53	188	0.003	1.002	0.001	8	0	
5220.5	2.440	96.07	91.96	187.23	0.002	1.001	0.001	8	0	
5221.0	2.440	100.24	93.21	187.65	0.001	1.004	0.003	8	0	
5221.5	2.441	101.02	93.95	192.39	0.005	0.842	0.001	8	0	
5222.0	2.454	96.42	94.57	197.97	0.041	0.863	0.003	8	0	
5222.5	2.442	94.14	95.26	200.55	0.042	0.862	0.005	8	0	
5223.0	2.431	95.73	95.71	202.55	0.042	0.871	0.005	8	0	
5223.5	2.424	99.06	95.71	203.6	0.035	0.931	0.004	8	0	
5224.0	2.435	96.07	95.71	203.6	0.025	0.965	0.002	8	0	
5224.5	2.434	95.86	95.22	203.6	0.011	0.981	0.003	8	0	
5225.0	2.421	96.07	94.23	203.6	0.014	1.004	0.003	8	0	
5225.5	2.412	108.79	93.74	203.6	0.003	1.002	0.005	8	0	
5226.0	2.404	113.83	95.08	203.6	0.003	0.972	0.005	8	0	
5226.5	2.403	114.87	95.79	203.6	0.013	0.932	0.004	8	0	
5227.0	2.402	108.73	94.5	203.6	0.022	0.992	0.002	8	0	
5227.5	2.415	104.34	93.22	203.6	0.005	1.001	0.004	8	0	
5228.0	2.410	103.59	91.93	203.6	0.002	0.995	0.005	8	0	
5228.5	2.414	102.68	91.47	203.6	0.003	0.935	0.003	8	0	
5229.0	2.405	103.17	91.35	203.6	0.023	0.914	0.003	8	0	
5229.5	2.424	107.45	91.9	203.6	0.034	0.892	0.003	8	0	
5230.0	2.453	105.3	92.76	205.65	0.035	0.864	0.002	8	0	
5230.5	2.464	101.96	92.76	207.92	0.031	0.874	0.002	8	0	
5231.0	2.455	92.97	92.76	208.13	0.034	0.813	0.002	8	0	
5231.5	2.451	94.19	92.76	208.13	0.053	0.862	0.005	8	0	
5232.0	2.453	90.25	92.74	208.13	0.033	0.773	0.001	8	0	
5232.5	2.440	91.12	93.01	208.13	0.052	0.725	0.024	8	0	
5233.0	2.433	89.15	93.58	208.13	0.062	0.515	0.033	8	0	
5233.5	2.423	87.4	94.16	205.31	0.102	0.491	0.061	5	0	
5234.0	2.425	87.94	94.74	201.18	0.103	0.502	0.065	5	1	
5234.5	2.422	87.37	95.31	198.58	0.102	0.505	0.072	5	0	
5235.0	2.415	91.53	96.07	195.99	0.104	0.481	0.073	5	0	
5235.5	2.413	97.78	96.6	193.39	0.111	0.454	0.083	5	1	
5236.0	2.414	90.09	96.02	190.79	0.112	0.463	0.085	5	1	
5236.5	2.430	83.95	95.27	188.19	0.113	0.511	0.083	5	1	
5237.0	2.440	75.19	94.61	189.58	0.102	0.533	0.071	5	0	
5237.5	2.475	78.5	94.99	192.28	0.095	0.574	0.082	5	0	
5238.0	2.480	79.16	96.48	192.28	0.082	0.595	0.081	8	0	
5238.5	2.470	79.44	96.86	192.28	0.082	0.744	0.082	8	0	
5239.0	2.434	76.81	96.69	191.15	0.053	0.515	0.052	8	0	
5239.5	2.381	75.06	96.69	190.02	0.111	0.444	0.075	4	0	
5240.0	2.340	71.02	96.69	190.02	0.135	0.431	0.071	4	1	
5240.5	2.320	74.97	95.22	190.02	0.145	0.453	0.073	3	1	
5241.0	2.334	77.82	93.74	188.89	0.134	0.493	0.061	3	1	
5241.5	2.354	87.37	93.74	186.44	0.125	0.534	0.064	4	1	
5242.0	2.375	86.27	94.52	184.94	0.112	0.535	0.062	5	0	
5242.5	2.394	86	95.12	184.59	0.105	0.554	0.072	5	0	
5243.0	2.400	86.52	94.73	184.24	0.101	0.573	0.045	8	0	
5243.5	2.413	90.47	94.36	183.9	0.101	0.565	0.043	8	0	
5244.0	2.412	96.73	93.95	183.55	0.101	0.561	0.045	8	0	
5244.5	2.412	91.72	93.86	187.82	0.092	0.571	0.064	8	0	
5245.0	2.434	91.72	94.23	192.28	0.092	0.602	0.005	8	0	
5245.5	2.440	86.46	94.7	192.28	0.084	0.623	0.002	8	0	
5246.0	2.455	91.28	95.18	191.13	0.081	0.682	0.005	8	0	
5246.5	2.451	89.53	95.66	190.76	0.072	0.714	0.001	8	0	
5247.0	2.452	92.25	96.29	192.33	0.065	0.752	0.005	8	0	
5247.5	2.443	96.2	98.17	193.9	0.063	0.842	0.001	8	0	
5248.0	2.425	99.93	99.65	199.08	0.042	0.875	0.003	8	0	
5248.5	2.423	105.47	99.65	207.08	0.044	0.933	0.002	8	0	
5249.0	2.420	98.68	99.65	212.61	0.022	0.923	0.005	8	0	
5249.5	2.422	102.22	98.79	215.27	0.025	0.951	0.001	8	0	
5250.0	2.424	94.32	97.59	217.13	0.023	0.924	0.002	8	0	
5250.5	2.432	96.51	96.53	215.88	0.024	0.864	0.003	8	0	
5251.0	2.440	91.03	95.1	211.09	0.044	0.815	0.003	8	0	
5251.5	2.444	93.66	94.55	206.3	0.041	0.783	0.001	8	0	
5252.0	2.450	94.76	94.72	202.73	0.054	0.765	0.002	8	0	
5252.5	2.460	96.23	94.72	198.33	0.055	0.924	0.005	8	0	
5253.0	2.474	95.13	94.72	191.86	0.025	0.725	0.004	8	0	
5253.5	2.470	90.85	94.23	189.4	0.061	0.715	0.005	8	0	
5254.0	2.474	90.44	93.74	189.47	0.062	0.714	0.004	8	0	
5254.5	2.483	85	93.74	188.03	0.065	0.664	0.005	8	0	
5255.0	2.481	83.36	93.74	187.53	0.065	0.614	0.001	8	0	
5255.5	2.464	79.3	93.74	187.76	0.075	0.571	0.002	8	0	
5256.0	2.423	83.2	93.74	187.76	0.092	0.541	0.005	8	0	
5256.5	2.395	81.67	95.55	187.76	0.103	0.484	0.043	5	0	
5257.0	2.361	85.17	97.92	187.76	0.123	0.441	0.041	4	1	
5257.5	2.344	78.82	99.03	187.76	0.144	0.425	0.042	3	1	
5258.0	2.303	80.96	100.14	190.32	0.152	0.434	0.042	2	1	
5258.5	2.293	73.18	101.26	196.46	0.165	0.412	0.043	2	1	
5259.0	2.301	72.74	100.75	203.6	0.161	0.405	0.041	2	1	
5259.5	2.302	71.27	99.47	210.75	0.163	0.372	0.042	2	1	
5260.0	2.291	71.7	99.04	207.9	0.163	0.365	0.051	2	1	
5260.5	2.270	71.49	98.16	204.99	0.175	0.385	0.041	2	1	
5261.0	2.282	74.21	107.39	218.5	0.165	0.694	0.042	2	1	
5261.5	2.323	82.98	97.17	228.5	0.081	0.634	-0.077	8	0	
5262.0	2.360	88.38	96.95	227.37	0.095	0.794	0.004	8	0	
5262.5	2.405	91.78	96.74	226.24	0.055	0.864	0.005	8	0	
5263.0	2.422	87.62	96.58	226.24	0.043	0.885	0.002	8	0	
5263.5	2.430	89.59	96.12	226.24	0.032	0.923	0.005	8	0	
5264.0	2.454	90.03	96.45	225.9	0.025	0.941	0.002	8	0	
5264.5	2.463	93.98	96.94	225.26	0.024	0.925	0.002	8	0	
5265.0	2.474	94.26	96.69	224.69	0.025	0.894	0.004	8	0	
5265.5	2.460	94.7	96.69	224.11	0.033	1.005	0.001	8	0	
5266.0	2.473	101.05	96.2	220.24	0.004	0.801	0.001	8	0	
5266.5	2.493	103.53	95.71	211.58	0.044	0.755	0.005	8	0	
5267.0	2.505	103.75	95.71	200.12	0.053	0.682	0.003	8	0	
5267.5	2.494	99.44	95.71	191.18	0.062	0.562	0.001	8	0	
