~Version Information									
VERS.		2.0:   CWLS log ASCII Standard -VERSION 2.0								
WRAP.		NO:   One line per depth step								
~Well Information Block									
#MNEM.UNIT	Data T	ype    Information								
#---------	--------	---    ---------------------------								
STRT.F		3380.0000:								
STOP.F		6790:00:00								
STEP.F		0.5000:								
NULL.		-999.2500:								
UWI .		EJEMPLO:  UWI								
API .		EJEMPLO:  UWI								
WELL.		EJEMPLO:  COMMON WELL NAME								
COMP.		UNKNOWN:  WELL OPERATOR								
FLD .		UNKNOWN:  FIELD								
LIC .		UNKNOWN:  AUTHORIZATION NO								
LOC .		VMM:  BASIN								
CTRY.		UNKNOWN:  COUNTRY								
STAT.		UNKNOWN:  STATE								
CNTY.		UNKNOWN:  COUNTY								
PROV.		UNKNOWN:  STATE								
SRVC.		UNKNOWN:  COMPANY								
DATE.		UNKNOWN:  LOG RUN DATE								
LONG.	"	-72.8"	9:  LONGITUDE								
LATI.	"	6.0"	0:  LATITUDE								
XCOORD.	"	1000"	00:  X COORDINATE								
YCOORD.	"	1000"	00:  Y COORDINATE								
ELEV.FT	280.0000:  ELEVATION								
TD  .FT	6869.0005:  TOTAL DEPTH								
~Parameter Information	Block								
#MNEM.UNIT	Value	Description								
#---------	--------	---    ---------------------------								
~Curve Information Block								
#MNEM.UNIT		API CODE     Curve Description								
#---------		-----------    ---------------------------								
DEPTH.F		00 000 000 000:  Index Curve								
DEN.g/cm3		00 000 000 000:								
GR .GAPI		00 000 000 000:								
DT.us/ft		00 : Sonic P wave								
DTS.us/ft		00 : Sonic Shear wave								
PHIE.v/v		00 : Effective porosity from Petrophysics								
VSH.v/v			00 : Volume of Shale from Petrophysics							
SW.v/v			00 : Water Saturation from Petrophysics							
ROCKTYPE.		00 : Rocktype from Petrophysics								
ROCK_VSH.		00 : Shale - Sand from Vsh cutoff from Petrophysics								
										
~A DEPTH	DEN	GR	DT	DTS	PHIE	VSH	SW	ROCKTYPE	ROCK_VSH	
# ...
4903.0	2.422	89.28	84.49	177.34	0.013	0.792	0.004	8	0	
4903.5	2.422	90.59	83.67	177.1	0.054	0.964	0.001	8	0	
4904.0	2.422	83.58	83.9	176.86	0.015	0.974	0.005	8	0	
4904.5	2.410	82.79	83.9	176.62	0.014	0.744	0.005	8	0	
4905.0	2.411	84.99	85.07	178.02	0.061	0.982	0.005	8	0	
4905.5	2.403	90.47	88.11	184.32	0.011	1.003	0.002	8	0	
4906.0	2.394	94.5	90.66	192.65	0.005	0.842	0.004	8	0	
4906.5	2.391	93.18	92.67	199.18	0.044	0.884	0.001	8	0	
4907.0	2.405	86.08	95.33	204.65	0.032	0.875	0.003	8	0	
4907.5	2.391	83.67	98	207.63	0.041	1.005	0.001	8	0	
4908.0	2.382	89.53	99.14	208.96	0.004	1.002	0.005	8	0	
4908.5	2.371	91.81	99.19	210.61	0.005	0.871	0.003	8	0	
4909.0	2.351	92.91	99.16	212.25	0.043	0.885	0.002	8	0	
4909.5	2.325	87.48	98.29	214	0.045	0.911	0.003	8	0	
4910.0	2.321	92.22	97.8	214.92	0.033	0.872	0.004	8	0	
4910.5	2.340	92	97.6	214.92	0.041	0.843	0.001	8	0	
4911.0	2.365	90.92	97	214.92	0.051	0.804	0.005	8	0	
4911.5	2.373	85.3	96.4	214.06	0.053	0.802	0.005	8	0	
4912.0	2.381	86.83	95.8	211.55	0.052	0.823	0.002	8	0	
4912.5	2.385	89.87	94.97	208.26	0.054	0.812	0.005	8	0	
4913.0	2.394	93.82	94.07	204.97	0.055	0.822	0.001	8	0	
4913.5	2.402	93.6	93.32	201.69	0.052	0.811	0.002	8	0	
4914.0	2.401	89.45	92.2	198.4	0.052	0.812	0.005	8	0	
4914.5	2.421	90.09	91.18	195.12	0.054	0.791	0.004	8	0	
4915.0	2.432	91.41	90.64	191.83	0.052	0.813	0.005	8	0	
4915.5	2.464	100.39	90.09	188.55	0.042	0.805	0.005	8	0	
4916.0	2.465	98.92	89.55	185.97	0.052	0.803	0.005	8	0	
4916.5	2.461	99.58	89.52	185.74	0.052	0.805	0.001	8	0	
4917.0	2.452	94.1	89.89	186.49	0.053	0.821	0.002	8	0	
4917.5	2.461	92.35	90.14	186.15	0.043	0.822	0.004	8	0	
4918.0	2.462	91.03	90.39	188.78	0.045	0.815	0.003	8	0	
4918.5	2.464	94.07	90.64	192.73	0.044	0.815	0.002	8	0	
4919.0	2.445	93.57	90.73	194.55	0.054	0.812	0.002	8	0	
4919.5	2.432	91.37	91.05	196.37	0.051	0.852	0.001	8	0	
4920.0	2.433	88.56	91.79	198.18	0.041	0.831	0.003	8	0	
4920.5	2.425	91.06	92.62	197.84	0.042	0.851	0.005	8	0	
4921.0	2.432	87.77	92.53	197.23	0.045	0.852	0.001	8	0	
4921.5	2.435	86.68	92.02	198.51	0.044	0.872	0.002	8	0	
4922.0	2.442	87.65	92.01	199.78	0.032	0.863	0.001	8	0	
4922.5	2.450	94.66	91.78	201.06	0.044	0.855	0.002	8	0	
4923.0	2.464	92.25	92.42	202.34	0.041	0.841	0.003	8	0	
4923.5	2.463	86.82	93.69	203.29	0.045	0.853	0.004	8	0	
4924.0	2.450	79.1	94.46	203.6	0.043	0.843	0.003	8	0	
4924.5	2.451	80.41	95.21	203.6	0.044	0.824	0.004	8	0	
4925.0	2.455	84.09	95.09	203.6	0.042	0.822	0.002	8	0	
4925.5	2.443	84.36	94.96	203.6	0.043	0.861	0.003	8	0	
4926.0	2.452	88.09	95.06	203.6	0.043	0.883	0.004	8	0	
4926.5	2.445	93.88	94.38	203.6	0.031	0.835	0.004	8	0	
4927.0	2.463	98.71	94.15	203.6	0.041	0.764	0.005	8	0	
4927.5	2.472	98.05	94.52	203.6	0.052	0.765	0.004	8	0	
4928.0	2.480	91.25	94.55	203.6	0.054	0.751	0.005	8	0	
4928.5	2.485	85.11	93.3	208.67	0.052	0.722	0.005	8	0	
4929.0	2.465	82.7	93.37	212.99	0.063	0.684	0.001	8	0	
4929.5	2.443	84.63	94.47	214.19	0.073	0.664	0.003	8	0	
4930.0	2.434	87.48	95.06	215.53	0.072	0.921	0.005	8	0	
4930.5	2.432	87.43	96.01	214.37	0.023	0.954	0.003	8	0	
4931.0	2.432	90.28	96.52	214.33	0.011	0.815	0.002	8	0	
4931.5	2.431	93.2	96.69	214.87	0.054	0.832	0.001	8	0	
4932.0	2.441	98.95	96.69	214.92	0.044	0.851	0.004	8	0	
4932.5	2.462	101.15	96.69	214.92	0.043	0.882	0.005	8	0	
4933.0	2.483	105.19	96.69	211.53	0.034	0.941	0.005	8	0	
4933.5	2.481	96.2	96.53	208.13	0.025	0.983	0.004	8	0	
4934.0	2.483	95.76	93.79	203.92	0.012	0.942	0.005	8	0	
4934.5	2.485	95.73	90.99	199.38	0.021	0.905	0.001	8	0	
4935.0	2.503	105.59	90.79	199.07	0.023	0.843	0.004	8	0	
4935.5	2.515	105.15	90.79	199.07	0.031	0.833	0.003	8	0	
4936.0	2.511	99.93	90.79	199.07	0.044	0.795	0.002	8	0	
4936.5	2.514	94.01	91.01	199.07	0.054	0.713	0.004	8	0	
4937.0	2.494	91.38	91.65	199.61	0.062	0.654	0.061	8	0	
4937.5	2.475	97.1	92.48	201.72	0.082	0.705	0.064	8	0	
4938.0	2.451	103.02	94.6	206.67	0.075	0.761	0.003	8	0	
4938.5	2.460	101.71	97.13	211.35	0.053	0.821	0.005	8	0	
4939.0	2.474	97.35	98.15	212.66	0.043	0.832	0.003	8	0	
4939.5	2.481	91.47	97.21	212.66	0.042	0.803	0.002	8	0	
4940.0	2.485	93.88	96.29	212.66	0.053	0.775	0.003	8	0	
4940.5	2.473	93.66	96.54	210.34	0.052	0.803	0.001	8	0	
4941.0	2.464	95.92	95.65	206.14	0.055	0.894	0.002	8	0	
4941.5	2.471	92.82	92.67	202.4	0.031	0.914	0.005	8	0	
4942.0	2.505	90.85	90.78	198.66	0.023	0.875	0.001	8	0	
4942.5	2.532	85.33	89.68	194.93	0.031	0.881	0.001	8	0	
4943.0	2.535	79.44	87.11	191.19	0.032	0.913	0.002	8	0	
4943.5	2.551	73.96	86.33	187.45	0.023	0.912	0.002	8	0	
4944.0	2.562	72.96	86.85	183.71	0.022	0.881	0.004	8	0	
4944.5	2.570	76.25	86.85	180.27	0.022	0.871	0.003	8	0	
4945.0	2.562	82.6	86.85	178.7	0.032	0.862	0.003	8	0	
4945.5	2.550	87.23	86.41	178.7	0.035	0.822	0.001	8	0	
4946.0	2.553	88.15	86.66	177.57	0.045	0.764	0.003	8	0	
4946.5	2.511	85.52	88.91	176.44	0.051	0.712	0.005	8	0	
4947.0	2.465	82.04	90.9	176.44	0.065	0.675	0.004	8	0	
4947.5	2.422	83.53	90.58	178.7	0.084	0.691	0.002	8	0	
4948.0	2.410	92.63	91.28	180.96	0.084	0.691	0.002	8	0	
4948.5	2.401	96.8	92.26	180.96	0.085	0.751	0.005	8	0	
4949.0	2.402	98.55	91.77	180.32	0.064	0.731	0.002	8	0	
4949.5	2.414	96.51	91.77	179.1	0.075	0.741	0.005	8	0	
4950.0	2.424	97.82	90.71	178.49	0.063	0.693	0.003	8	0	
4950.5	2.432	92.32	90.96	179.87	0.072	0.664	0.001	8	0	
4951.0	2.434	87.46	93.45	182.23	0.085	0.611	0.003	8	0	
4951.5	2.425	87.68	95.09	184.08	0.094	0.654	0.053	8	0	
4952.0	2.394	94.16	95.83	185.94	0.095	0.814	0.004	8	0	
4952.5	2.384	99.86	96.26	187.79	0.053	0.861	0.004	8	0	
4953.0	2.380	102.71	96.32	189.65	0.041	0.891	0.002	8	0	
4953.5	2.391	95.73	96.3	191.5	0.033	0.883	0.002	8	0	
4954.0	2.412	97.48	95.98	193.36	0.031	0.923	0.005	8	0	
4954.5	2.424	89.81	96.02	195.21	0.024	0.952	0.004	8	0	
4955.0	2.423	92.03	95.18	197.07	0.024	0.982	0.005	8	0	
4955.5	2.415	86.11	93.79	198.92	0.015	0.984	0.002	8	0	
4956.0	2.415	88.09	93.44	200.78	0.014	0.955	0.003	8	0	
4956.5	2.414	93.84	93.52	202.63	0.025	0.931	0.005	8	0	
4957.0	2.421	88.68	94.18	205.84	0.021	0.873	0.001	8	0	
4957.5	2.422	91.97	94.39	205.22	0.034	0.884	0.002	8	0	
4958.0	2.425	93.72	94.11	200.04	0.033	0.882	0.002	8	0	
4958.5	2.430	101.96	93.3	195.54	0.035	0.924	0.002	8	0	
4959.0	2.431	104.15	92.13	191.04	0.025	0.875	0.004	8	0	
4959.5	2.432	104.59	92.69	186.54	0.032	0.871	0.001	8	0	
4960.0	2.430	111.9	94.52	185.91	0.044	0.881	0.001	8	0	
4960.5	2.425	109.7	96.04	187.34	0.035	0.914	0.002	8	0	
4961.0	2.422	110.14	97.98	190.71	0.032	0.884	0.002	8	0	
4961.5	2.425	100.33	100.43	193.92	0.034	1.002	0.005	8	0	
4962.0	2.433	99.89	102.45	193.16	0.003	1.004	0.002	8	0	
4962.5	2.435	95.51	102.81	192.39	0.001	1.005	0.005	8	0	
4963.0	2.421	97.13	102.39	194.79	0.004	1.004	0.003	8	0	
4963.5	2.404	97.05	101.9	199.41	0.001	0.983	0.001	8	0	
4964.0	2.360	95.51	101.04	202.29	0.014	0.892	0.002	8	0	
4964.5	2.331	93.89	100.18	206.41	0.044	0.873	0.001	8	0	
4965.0	2.332	91.78	99.33	207.42	0.041	0.915	0.001	8	0	
4965.5	2.354	89.15	98.47	205.86	0.033	0.925	0.005	8	0	
4966.0	2.385	90.77	97.61	207.19	0.034	0.905	0.004	8	0	
4966.5	2.415	88.62	96.43	208.59	0.031	0.863	0.005	8	0	
4967.0	2.433	91.91	93.58	208.03	0.044	0.861	0.005	8	0	
4967.5	2.454	90.82	89.38	204.66	0.045	0.841	0.004	8	0	
4968.0	2.462	92.1	87.11	199.15	0.044	1.003	0.002	8	0	
4968.5	2.485	93.16	86.41	192	0.003	1.003	0.003	8	0	
4969.0	2.500	96.67	85.87	187.34	0.004	0.893	0.005	8	0	
4969.5	2.515	96.67	85.87	188.93	0.032	0.895	0.001	8	0	
4970.0	2.504	89.69	86.32	189.66	0.024	0.905	0.004	8	0	
4970.5	2.492	87.18	87.93	193.09	0.025	1.001	0.001	8	0	
4971.0	2.470	90.91	90.07	201.31	0.005	0.913	0.005	8	0	
4971.5	2.452	102.31	91.83	206.21	0.022	0.885	0.001	8	0	
4972.0	2.445	103.27	93.98	209.75	0.034	0.921	0.003	8	0	
4972.5	2.431	100.49	95.34	211.44	0.024	0.984	0.005	8	0	
4973.0	2.433	90.84	95.05	210	0.011	0.951	0.004	8	0	
4973.5	2.421	88.21	93.86	207.3	0.022	0.901	0.001	8	0	
4974.0	2.433	89.45	91.97	204.59	0.032	0.891	0.001	8	0	
4974.5	2.451	107.07	88.84	201.56	0.031	0.861	0.001	8	0	
4975.0	2.480	125.71	85.52	198.23	0.032	0.824	0.001	8	0	
4975.5	2.520	143.25	83.41	192.53	0.045	0.832	0.004	8	0	
4976.0	2.534	134.62	82.97	190.37	0.035	0.853	0.005	8	0	
