~Version Information									
VERS.		2.0:   CWLS log ASCII Standard -VERSION 2.0								
WRAP.		NO:   One line per depth step								
~Well Information Block									
#MNEM.UNIT	Data T	ype    Information								
#---------	--------	---    ---------------------------								
STRT.F		3380.0000:								
STOP.F		6790:00:00								
STEP.F		0.5000:								
NULL.		-999.2500:								
UWI .		EJEMPLO:  UWI								
API .		EJEMPLO:  UWI								
WELL.		EJEMPLO:  COMMON WELL NAME								
COMP.		UNKNOWN:  WELL OPERATOR								
FLD .		UNKNOWN:  FIELD								
LIC .		UNKNOWN:  AUTHORIZATION NO								
LOC .		VMM:  BASIN								
CTRY.		UNKNOWN:  COUNTRY								
STAT.		UNKNOWN:  STATE								
CNTY.		UNKNOWN:  COUNTY								
PROV.		UNKNOWN:  STATE								
SRVC.		UNKNOWN:  COMPANY								
DATE.		UNKNOWN:  LOG RUN DATE								
LONG.	"	-72.8"	9:  LONGITUDE								
LATI.	"	6.0"	0:  LATITUDE								
XCOORD.	"	1000"	00:  X COORDINATE								
YCOORD.	"	1000"	00:  Y COORDINATE								
ELEV.FT	280.0000:  ELEVATION								
TD  .FT	6869.0005:  TOTAL DEPTH								
~Parameter Information	Block								
#MNEM.UNIT	Value	Description								
#---------	--------	---    ---------------------------								
~Curve Information Block								
#MNEM.UNIT		API CODE     Curve Description								
#---------		-----------    ---------------------------								
DEPTH.F		00 000 000 000:  Index Curve								
DEN.g/cm3		00 000 000 000:								
GR .GAPI		00 000 000 000:								
DT.us/ft		00 : Sonic P wave								
DTS.us/ft		00 : Sonic Shear wave								
PHIE.v/v		00 : Effective porosity from Petrophysics								
VSH.v/v			00 : Volume of Shale from Petrophysics							
SW.v/v			00 : Water Saturation from Petrophysics							
ROCKTYPE.		00 : Rocktype from Petrophysics								
ROCK_VSH.		00 : Shale - Sand from Vsh cutoff from Petrophysics								
										
~A DEPTH	DEN	GR	DT	DTS	PHIE	VSH	SW	ROCKTYPE	ROCK_VSH	
# ...
6514.5	2.502	91.16	75.64	147.86	0.051	0.824	0.001	8	0	
6515.0	2.523	98.94	74.79	146.05	0.042	0.871	0.004	8	0	
6515.5	2.542	98.55	74.91	144.49	0.035	0.871	0.001	8	0	
6516.0	2.551	97.59	74.51	142.73	0.032	0.842	0.001	8	0	
6516.5	2.545	89.29	73.91	142.04	0.031	0.821	0.001	8	0	
6517.0	2.534	86.22	73.67	142.02	0.033	0.794	0.002	8	0	
6517.5	2.532	86.96	73.53	141.52	0.043	0.793	0.001	8	0	
6518.0	2.551	91.75	73.49	141.57	0.045	0.762	0.002	8	0	
6518.5	2.543	92.96	73.62	142.5	0.041	0.723	0.005	8	0	
6519.0	2.542	91.64	73.77	143.01	0.042	0.725	0.004	8	0	
6519.5	2.534	83.12	73.74	144.11	0.043	0.755	0.002	8	0	
6520.0	2.533	85.87	74.96	145.58	0.042	0.753	0.001	8	0	
6520.5	2.541	86.31	76.47	144.36	0.045	0.742	0.004	8	0	
6521.0	2.544	87.31	76.66	143.12	0.042	0.724	0.001	8	0	
6521.5	2.540	84.45	77.58	142.2	0.042	0.694	0.002	8	0	
6522.0	2.513	76.32	78.88	142.52	0.054	0.653	0.005	8	0	
6522.5	2.473	75.4	79.4	146.56	0.063	0.634	0.004	8	0	
6523.0	2.463	71.75	81.02	150.18	0.064	0.632	0.001	8	0	
6523.5	2.453	72.25	81.92	155.84	0.065	0.645	0.002	8	0	
6524.0	2.463	69.84	81.25	160.6	0.062	0.651	0.005	8	0	
6524.5	2.472	69.54	80.4	160.91	0.064	0.642	0.005	8	0	
6525.0	2.475	66.76	78.8	161.22	0.063	0.631	0.004	8	0	
6525.5	2.482	62.32	77.84	161.67	0.061	0.633	0.004	8	0	
6526.0	2.492	63.42	77.69	161.45	0.062	0.633	0.001	8	0	
6526.5	2.490	67.43	77.56	160.55	0.063	0.642	0.003	8	0	
6527.0	2.515	72.94	76.86	158.2	0.052	0.641	0.004	8	0	
6527.5	2.521	72.94	76.35	157.46	0.051	0.673	0.004	8	0	
6528.0	2.541	73.47	76.75	158.25	0.055	0.655	0.001	8	0	
6528.5	2.524	79.63	76.67	157.68	0.054	0.595	0.003	8	0	
6529.0	2.492	77.58	76.05	157.63	0.064	0.573	0.003	8	0	
6529.5	2.484	72.82	75.16	157.87	0.074	0.613	0.001	8	0	
6530.0	2.470	67.55	74.59	157.44	0.073	0.693	0.004	8	0	
6530.5	2.501	73.06	74.9	157.1	0.053	0.735	0.004	8	0	
6531.0	2.513	80.85	74.87	156.4	0.055	0.794	0.005	8	0	
6531.5	2.524	79.2	74.69	155.65	0.043	0.813	0.003	8	0	
6532.0	2.513	77.72	76.93	155.93	0.045	0.812	0.003	8	0	
6532.5	2.513	71.68	79.52	157.41	0.045	1.002	0.005	8	0	
6533.0	2.524	77.16	79.12	160.49	0.005	1.004	0.001	8	0	
6533.5	2.534	71.9	77.64	163.82	0.004	1.001	0.004	8	0	
6534.0	2.530	76.16	78.03	165.18	0.003	1.003	0.004	8	0	
6534.5	2.534	70.4	77.98	164.15	0.004	1.001	0.005	8	0	
6535.0	2.534	69.75	76.25	161.68	0.005	1.003	0.001	8	0	
6535.5	2.541	64.48	75.56	158.43	0.004	0.965	0.004	8	0	
6536.0	2.542	65.09	76.27	157.47	0.011	1.001	0.003	8	0	
6536.5	2.535	68.99	79.79	158.32	0.005	1.005	0.003	8	0	
6537.0	2.523	73	82.14	160.45	0.003	1.005	0.005	8	0	
6537.5	2.500	71.69	80.98	164.65	0.001	1.004	0.004	8	0	
6538.0	2.475	68.45	80.16	169.58	0.002	1.002	0.003	8	0	
6538.5	2.464	66.44	79.87	172.72	0.003	0.884	0.001	8	0	
6539.0	2.453	69.15	79.38	172.96	0.035	0.873	0.002	8	0	
6539.5	2.475	69.81	79.31	171.24	0.035	0.891	0.003	8	0	
6540.0	2.481	75.82	79.29	164.99	0.031	0.902	0.001	8	0	
6540.5	2.501	72.02	78.1	158.01	0.022	0.892	0.003	8	0	
6541.0	2.520	75.1	76.77	152.09	0.024	0.864	0.001	8	0	
6541.5	2.532	73.6	75.44	146.75	0.034	0.823	0.003	8	0	
6542.0	2.543	77.55	74.69	144.85	0.032	0.761	0.004	8	0	
6542.5	2.524	77.3	74.67	145.29	0.041	0.961	0.002	8	0	
6543.0	2.495	76.72	75.4	146.83	0.012	0.934	0.001	8	0	
6543.5	2.451	78.36	77.92	149.63	0.011	0.613	0.002	8	0	
6544.0	2.470	78.89	80.71	153.08	0.075	0.513	0.003	8	0	
6544.5	2.473	78.45	83.07	155.58	0.081	0.361	0.012	5	0	
6545.0	2.474	75.67	84.44	156.99	0.122	0.143	0.001	5	1	
6545.5	2.410	77.13	84.72	158.86	0.171	0.121	0.013	3	1	
6546.0	2.380	72.88	85.27	161.33	0.181	0.114	0.015	2	1	
6546.5	2.371	72.92	86.27	164.1	0.185	0.112	0.002	2	1	
6547.0	2.344	70.43	87.57	167.87	0.203	0.102	0.002	2	1	
6547.5	2.312	68.18	90.87	171.93	0.213	0.091	0.005	1	1	
6548.0	2.284	65.99	91.3	174.25	0.235	0.074	-0.007	1	1	
6548.5	2.274	63.87	88.64	174.36	0.231	0.064	-0.009	1	1	
6549.0	2.265	67.61	85.34	172.22	0.242	0.073	-0.007	1	1	
6549.5	2.263	67.27	81.48	167.94	0.244	0.091	0.002	1	1	
6550.0	2.312	67.15	78.82	160.47	0.214	0.145	0.013	1	1	
6550.5	2.385	64.88	76.1	152.87	0.185	0.213	0.034	2	1	
6551.0	2.441	65.61	75.19	148.64	0.145	0.253	0.045	4	1	
6551.5	2.452	63.97	75.65	147.37	0.124	0.302	0.051	5	1	
6552.0	2.451	66.02	76.84	148.73	0.114	0.345	0.075	5	1	
6552.5	2.453	71.55	78.45	151.76	0.115	0.351	0.072	5	1	
6553.0	2.460	75.92	79.73	155.78	0.113	0.343	0.071	5	1	
6553.5	2.465	74.41	81.66	161.64	0.114	0.303	0.075	5	1	
6554.0	2.433	68.71	82.42	166.74	0.124	0.304	0.071	5	1	
6554.5	2.413	65.21	82.05	169.75	0.135	0.324	0.073	4	1	
6555.0	2.412	64.23	82.57	172.15	0.121	0.353	0.075	4	1	
6555.5	2.433	65.17	83.31	172.9	0.124	0.341	0.074	5	1	
6556.0	2.434	70.96	82.92	171.78	0.123	0.301	0.063	4	1	
6556.5	2.432	73.37	82.12	168.82	0.133	0.264	0.075	4	1	
6557.0	2.425	75.85	83.14	167.87	0.145	0.273	0.083	4	1	
6557.5	2.435	71.61	83.2	169.64	0.144	0.262	0.081	4	1	
6558.0	2.423	75.7	82.07	171.86	0.145	0.272	0.093	4	1	
6558.5	2.434	73.94	82.48	173.94	0.133	0.215	0.091	4	1	
6559.0	2.423	70.22	85.2	176.48	0.155	0.211	0.095	4	1	
6559.5	2.411	62.7	87.04	179.31	0.151	0.173	0.095	3	1	
6560.0	2.405	56.64	85.35	180.9	0.165	0.155	0.084	3	1	
6560.5	2.420	55.56	84.51	181.41	0.164	0.102	0.092	3	1	
6561.0	2.433	56.8	85.85	182.09	0.164	0.133	0.102	3	1	
6561.5	2.425	59.88	89.61	181.55	0.161	0.134	0.102	3	1	
6562.0	2.420	61.66	93.29	180.12	0.162	0.053	0.103	3	1	
6562.5	2.401	58.81	92.37	181.52	0.183	0.055	0.091	2	1	
6563.0	2.391	57.28	90.16	182.58	0.183	0.064	0.083	2	1	
6563.5	2.383	55.93	90.58	182.28	0.185	0.064	0.061	2	1	
6564.0	2.370	54.27	90.8	183.74	0.185	0.052	0.064	2	1	
6564.5	2.355	55.79	90.1	186.35	0.193	0.064	0.063	2	1	
6565.0	2.354	56.12	89.28	188.75	0.192	0.105	0.075	2	1	
6565.5	2.363	59.13	88.7	192.07	0.192	0.112	0.085	2	1	
6566.0	2.375	53.65	89.15	196	0.193	0.114	0.095	2	1	
6566.5	2.364	52.67	90.74	198.7	0.193	0.105	0.091	2	1	
6567.0	2.353	53.05	92.43	200.54	0.191	0.095	0.085	2	1	
6567.5	2.340	54.27	95.13	190.7	0.205	0.082	0.084	2	1	
6568.0	2.335	54.71	97.82	197.23	0.205	0.064	0.082	2	1	
6568.5	2.331	49.06	95.52	190.1	0.204	0.073	0.073	2	1	
6569.0	2.343	48.79	99.42	189.67	0.204	0.072	0.074	2	1	
6569.5	2.330	49.23	98.87	185.79	0.204	0.085	0.073	2	1	
6570.0	2.350	51.49	101.89	182.35	0.194	0.092	0.072	2	1	
6570.5	2.361	51.84	102.21	177.54	0.195	0.102	0.072	2	1	
6571.0	2.380	55.46	86.83	173.32	0.184	0.133	0.074	2	1	
6571.5	2.393	60.18	85.95	169.94	0.171	0.122	0.073	2	1	
6572.0	2.401	70.37	87.29	166.74	0.164	0.112	0.075	3	1	
6572.5	2.392	70.05	87.5	166.55	0.174	0.111	0.074	2	1	
6573.0	2.383	74.1	87.7	167.7	0.184	0.134	0.074	2	1	
6573.5	2.362	71.56	87.82	167.71	0.193	0.141	0.085	2	1	
6574.0	2.364	76.17	86.42	163.84	0.195	0.163	0.084	2	1	
6574.5	2.360	74.92	85.45	159.86	0.191	0.252	0.084	2	1	
6575.0	2.385	72.53	83.11	158.71	0.161	0.292	0.074	2	1	
6575.5	2.405	69.75	79.53	152.6	0.152	0.335	0.061	3	1	
6576.0	2.410	71.11	79	144.61	0.145	0.385	0.063	4	1	
6576.5	2.423	72.53	80.68	142.98	0.122	0.412	0.055	4	1	
6577.0	2.430	75.31	84.65	144.62	0.111	0.412	0.051	5	1	
6577.5	2.411	73.41	88.75	152.42	0.122	0.352	0.062	5	1	
6578.0	2.405	76.42	89.93	162.81	0.135	0.245	0.061	4	1	
6578.5	2.375	73.35	91.43	174.02	0.162	0.155	0.051	2	1	
6579.0	2.350	75.38	94.03	185.74	0.185	0.102	0.053	2	1	
6579.5	2.333	70.51	103.87	192.67	0.203	0.105	0.051	2	1	
6580.0	2.334	68.06	101.16	197.55	0.213	0.132	0.052	1	1	
6580.5	2.332	61.34	99.47	199.04	0.203	0.203	0.051	1	1	
6581.0	2.325	65.46	99.19	199.23	0.194	0.313	0.045	2	1	
6581.5	2.330	65.94	98.97	190.44	0.163	0.541	0.054	2	1	
6582.0	2.372	69.62	88.84	201.53	0.114	0.755	0.033	5	0	
6582.5	2.425	68.62	88.99	202.3	0.061	0.911	0.005	8	0	
6583.0	2.463	74.1	89.08	202.5	0.022	0.954	0.004	8	0	
6583.5	2.485	81.86	88.87	202.91	0.014	0.941	0.001	8	0	
6584.0	2.483	79.41	88.78	203.58	0.024	0.973	0.004	8	0	
6584.5	2.493	76.98	88.71	203	0.015	0.971	0.004	8	0	
6585.0	2.493	69.92	87.17	198.59	0.011	0.953	0.001	8	0	
6585.5	2.480	75.88	85.83	191.07	0.015	0.932	0.001	8	0	
6586.0	2.483	76.78	84.93	186.39	0.023	0.873	0.003	8	0	
6586.5	2.473	80.08	84.32	184.45	0.031	0.845	0.001	8	0	
6587.0	2.485	80.83	85.04	184.36	0.041	0.861	0.004	8	0	
6587.5	2.493	85	85.81	186.94	0.031	0.875	0.002	8	0	
