~Version Information									
VERS.		2.0:   CWLS log ASCII Standard -VERSION 2.0								
WRAP.		NO:   One line per depth step								
~Well Information Block									
#MNEM.UNIT	Data T	ype    Information								
#---------	--------	---    ---------------------------								
STRT.F		3380.0000:								
STOP.F		6790:00:00								
STEP.F		0.5000:								
NULL.		-999.2500:								
UWI .		EJEMPLO:  UWI								
API .		EJEMPLO:  UWI								
WELL.		EJEMPLO:  COMMON WELL NAME								
COMP.		UNKNOWN:  WELL OPERATOR								
FLD .		UNKNOWN:  FIELD								
LIC .		UNKNOWN:  AUTHORIZATION NO								
LOC .		VMM:  BASIN								
CTRY.		UNKNOWN:  COUNTRY								
STAT.		UNKNOWN:  STATE								
CNTY.		UNKNOWN:  COUNTY								
PROV.		UNKNOWN:  STATE								
SRVC.		UNKNOWN:  COMPANY								
DATE.		UNKNOWN:  LOG RUN DATE								
LONG.	"	-72.8"	9:  LONGITUDE								
LATI.	"	6.0"	0:  LATITUDE								
XCOORD.	"	1000"	00:  X COORDINATE								
YCOORD.	"	1000"	00:  Y COORDINATE								
ELEV.FT	280.0000:  ELEVATION								
TD  .FT	6869.0005:  TOTAL DEPTH								
~Parameter Information	Block								
#MNEM.UNIT	Value	Description								
#---------	--------	---    ---------------------------								
~Curve Information Block								
#MNEM.UNIT		API CODE     Curve Description								
#---------		-----------    ---------------------------								
DEPTH.F		00 000 000 000:  Index Curve								
DEN.g/cm3		00 000 000 000:								
GR .GAPI		00 000 000 000:								
DT.us/ft		00 : Sonic P wave								
DTS.us/ft		00 : Sonic Shear wave								
PHIE.v/v		00 : Effective porosity from Petrophysics								
VSH.v/v			00 : Volume of Shale from Petrophysics							
SW.v/v			00 : Water Saturation from Petrophysics							
ROCKTYPE.		00 : Rocktype from Petrophysics								
ROCK_VSH.		00 : Shale - Sand from Vsh cutoff from Petrophysics								
										
~A DEPTH	DEN	GR	DT	DTS	PHIE	VSH	SW	ROCKTYPE	ROCK_VSH	
# ...
3591.5	2.324	89.41	103.69	209.4	0.083	0.663	0.075	8	0	
3592.0	2.310	84.4	100.66	206.11	0.083	0.675	0.082	8	0	
3592.5	2.325	81.93	96.57	198.72	0.085	0.701	0.103	8	0	
3593.0	2.335	76.68	93.4	193.84	0.073	0.731	0.095	8	0	
3593.5	2.344	83.78	90.87	190.7	0.065	0.815	0.093	8	0	
3594.0	2.405	86.04	89.01	186.16	0.043	0.821	0.003	8	0	
3594.5	2.464	107.82	87.59	180.92	0.043	0.842	0.002	8	0	
3595.0	2.510	110.5	86.4	176.45	0.035	0.863	0.003	8	0	
3595.5	2.530	115.47	85.77	172.43	0.035	0.882	0.005	8	0	
3596.0	2.534	112.96	85.73	168.34	0.023	0.904	0.002	8	0	
3596.5	2.521	115.22	86.34	167.69	0.021	0.891	0.002	8	0	
3597.0	2.511	121.53	88.21	176.72	0.022	0.902	0.005	8	0	
3597.5	2.500	120.53	90.09	187.86	0.023	0.902	0.004	8	0	
3598.0	2.474	121.08	90.47	193.36	0.025	0.915	0.004	8	0	
3598.5	2.463	117.82	90.33	196.75	0.023	0.945	0.005	8	0	
3599.0	2.474	118.38	89.45	193.27	0.011	0.955	0.005	8	0	
3599.5	2.500	114.78	88.09	185.47	0.012	0.973	0.005	8	0	
3600.0	2.523	116.54	86.92	179.25	0.011	0.972	0.001	8	0	
3600.5	2.511	114.35	85.41	172.6	0.013	0.982	0.004	8	0	
3601.0	2.503	114.89	85.25	169.23	0.005	0.985	0.002	8	0	
3601.5	2.493	111.84	87.53	171.05	0.001	1.005	0.002	8	0	
3602.0	2.471	108.5	90.88	176.24	0.001	1.001	0.004	8	0	
3602.5	2.483	110.02	93.93	188.03	0.003	1.004	0.003	8	0	
3603.0	2.463	110.77	97.44	198.25	0.003	1.004	0.003	8	0	
3603.5	2.462	112.78	100.88	201.57	0.004	1.004	0.001	8	0	
3604.0	2.462	113.01	102.47	203.61	0.003	1.005	0.002	8	0	
3604.5	2.461	116.27	102.9	204.21	0.003	1.001	0.003	8	0	
3605.0	2.462	113.65	101.64	204.66	0.003	1.001	0.001	8	0	
3605.5	2.450	117.91	99.35	205.1	0.005	1.002	0.003	8	0	
3606.0	2.445	116.66	97.05	205.54	0.004	1.002	0.005	8	0	
3606.5	2.455	117.98	94.43	201.91	0.001	1.002	0.004	8	0	
3607.0	2.474	115.97	91.8	194.01	0.004	0.991	0.001	8	0	
3607.5	2.482	113.43	89.72	187.69	0.004	0.993	0.004	8	0	
3608.0	2.483	114.44	88.76	183.33	0.002	0.965	0.004	8	0	
3608.5	2.480	108.17	88.48	182.19	0.014	0.955	0.001	8	0	
3609.0	2.492	105.54	88.05	184.76	0.013	0.911	0.003	8	0	
3609.5	2.481	104.08	88.34	186.87	0.021	0.905	0.004	8	0	
3610.0	2.470	107.04	89.4	189.56	0.025	0.913	0.005	8	0	
3610.5	2.461	110.77	89.76	195.76	0.021	0.891	0.004	8	0	
3611.0	2.455	111.52	90.31	201.26	0.022	0.942	0.005	8	0	
3611.5	2.441	115.03	92.02	204.8	0.014	0.963	0.004	8	0	
3612.0	2.434	116.77	93.99	212.9	0.014	1.005	0.005	8	0	
3612.5	2.413	127.22	96.03	222.24	0.002	1.004	0.002	8	0	
3613.0	2.392	126.76	99.45	231.44	0.005	1.004	0.005	8	0	
3613.5	2.385	122.46	102.83	237.48	0.001	1.005	0.005	8	0	
3614.0	2.381	120.92	103.99	235.25	0.001	1.001	0.001	8	0	
3614.5	2.403	124.68	103.43	230.06	0.004	1.002	0.003	8	0	
3615.0	2.412	132.45	101.41	222.55	0.002	1.001	0.001	8	0	
3615.5	2.412	126.53	96.98	213.6	0.001	1.003	0.005	8	0	
3616.0	2.402	125.52	92.49	204	0.004	1.004	0.004	8	0	
3616.5	2.430	126.27	90.74	194.67	0.003	1.005	0.001	8	0	
3617.0	2.472	131.1	89.92	187.65	0.004	0.952	0.001	8	0	
3617.5	2.531	126.08	89.1	186.12	0.012	0.912	0.001	8	0	
3618.0	2.534	120.37	88.28	188.99	0.024	0.922	0.003	8	0	
3618.5	2.522	115.98	88.28	191.86	0.012	0.955	0.005	8	0	
3619.0	2.511	124.71	88.9	194.74	0.015	0.965	0.001	8	0	
3619.5	2.500	129.47	88.97	197.61	0.011	0.965	0.001	8	0	
3620.0	2.490	132.76	89.2	200.49	0.012	0.982	0.002	8	0	
3620.5	2.491	128.75	89.36	203.36	0.005	0.965	0.004	8	0	
3621.0	2.495	127.75	89.89	204.1	0.011	0.974	0.005	8	0	
3621.5	2.504	135.82	90.88	204.1	0.011	0.985	0.004	8	0	
3622.0	2.502	141.83	91.64	205.77	0.003	0.971	0.005	8	0	
3622.5	2.485	143.97	92.72	207.51	0.014	1.002	0.005	8	0	
3623.0	2.463	144.72	93.76	207.36	0.001	1.004	0.005	8	0	
3623.5	2.451	138.4	95.2	207.41	0.005	1.003	0.004	8	0	
3624.0	2.441	138.71	96.57	209.55	0.005	1.005	0.003	8	0	
3624.5	2.423	131.94	97.14	207.96	0.005	1.001	0.002	8	0	
3625.0	2.425	132.38	97.02	201.92	0.005	1.004	0.005	8	0	
3625.5	2.444	135.89	96.69	195.35	0.004	1.002	0.001	8	0	
3626.0	2.454	130.12	96.1	188.78	0.001	0.923	0.005	8	0	
3626.5	2.433	120.91	95.23	186.62	0.021	0.694	0.001	8	0	
3627.0	2.384	105.17	95.79	189.32	0.072	0.733	0.103	8	0	
3627.5	2.341	97.37	96.25	191.59	0.063	0.895	0.104	8	0	
3628.0	2.360	99.98	96.62	192.28	0.031	1.004	0.005	8	0	
3628.5	2.402	104.23	98.11	192.28	0.002	1.003	0.005	8	0	
3629.0	2.434	114.5	100.97	193.08	0.001	1.001	0.003	8	0	
3629.5	2.420	114.5	101.89	193.69	0.005	1.002	0.004	8	0	
3630.0	2.405	116.52	99.25	193.29	0.001	0.884	0.002	8	0	
3630.5	2.375	109.26	95.78	192.89	0.035	0.763	0.003	8	0	
3631.0	2.355	102.48	93.54	192.5	0.065	0.855	0.105	8	0	
3631.5	2.354	95.71	93.27	192.23	0.043	0.905	0.001	8	0	
3632.0	2.391	104.22	93.64	195.02	0.023	0.942	0.004	8	0	
3632.5	2.434	115.62	95.02	200.77	0.014	1.004	0.004	8	0	
3633.0	2.433	131.16	96.05	206.52	0.001	1.004	0.003	8	0	
3633.5	2.410	139.18	96.14	208.89	0.002	0.813	0.004	8	0	
3634.0	2.412	139.83	95.81	209.9	0.054	0.843	0.004	8	0	
3634.5	2.435	139.58	94.93	211.01	0.043	0.863	0.004	8	0	
3635.0	2.454	135.13	93.75	210.16	0.034	0.841	0.005	8	0	
3635.5	2.460	141.92	92.26	209.31	0.041	0.864	0.001	8	0	
3636.0	2.482	141.87	90.54	208.46	0.033	0.831	0.004	8	0	
3636.5	2.481	140.12	89.12	204.34	0.043	0.965	0.005	8	0	
3637.0	2.480	131.57	87.47	195.17	0.013	0.951	0.005	8	0	
3637.5	2.475	127.31	87.47	186.15	0.014	0.951	0.002	8	0	
3638.0	2.484	129.82	89.44	182.5	0.012	0.923	0.003	8	0	
3638.5	2.472	131.81	90.95	187.85	0.025	0.932	0.005	8	0	
3639.0	2.444	141.96	92.29	194.74	0.021	0.943	0.003	8	0	
3639.5	2.420	145.98	93.55	200.94	0.011	0.944	0.004	8	0	
3640.0	2.433	150.24	96.03	216.7	0.021	0.931	0.005	8	0	
3640.5	2.443	144.15	99.09	228.11	0.025	0.915	0.004	8	0	
3641.0	2.442	139.09	100.75	228.5	0.033	0.882	0.002	8	0	
3641.5	2.433	134.59	101.43	227.03	0.041	0.874	0.001	8	0	
3642.0	2.430	127.31	99.76	211.41	0.045	0.862	0.004	8	0	
3642.5	2.440	119.01	96.9	186.9	0.042	0.842	0.001	8	0	
3643.0	2.451	113.94	96.57	175.89	0.043	0.814	0.004	8	0	
3643.5	2.460	110.92	97.08	174.61	0.055	0.785	0.005	8	0	
3644.0	2.480	109.49	96.76	176.04	0.061	0.685	0.004	8	0	
3644.5	2.484	104.25	96.45	179.72	0.074	0.741	0.111	8	0	
3645.0	2.462	106.02	96.13	182.91	0.062	0.954	0.143	8	0	
3645.5	2.444	117	95.82	187.9	0.012	1.002	0.003	8	0	
3646.0	2.423	138.57	95.82	194.28	0.004	1.002	0.001	8	0	
3646.5	2.424	161.58	95.12	198.22	0.001	0.852	0.002	8	0	
3647.0	2.422	180.36	93.98	201.06	0.044	0.871	0.002	8	0	
3647.5	2.425	196.4	93.7	203.31	0.032	0.885	0.001	8	0	
3648.0	2.424	200.9	94.76	206.64	0.035	0.913	0.003	8	0	
3648.5	2.413	190.44	97.16	214.28	0.035	0.942	0.002	8	0	
3649.0	2.421	167.88	99.6	223.59	0.022	0.934	0.002	8	0	
3649.5	2.422	151.54	102.2	232.9	0.023	0.923	0.004	8	0	
3650.0	2.424	145.47	104.88	239.31	0.023	0.871	0.005	8	0	
3650.5	2.411	147.3	106.49	240.63	0.044	0.935	0.003	8	0	
3651.0	2.402	141.38	106.46	239.74	0.021	0.971	0.002	8	0	
3651.5	2.390	138.18	104.87	238.86	0.015	0.973	0.002	8	0	
3652.0	2.391	131.82	102.54	237.97	0.011	0.911	0.002	8	0	
3652.5	2.400	132.04	100.07	232.71	0.031	0.915	0.003	8	0	
3653.0	2.414	124.1	96.89	224.58	0.031	0.944	0.003	8	0	
3653.5	2.435	122.86	93.96	219.47	0.021	0.912	0.005	8	0	
3654.0	2.453	121.76	92.28	215.31	0.022	0.855	0.004	8	0	
3654.5	2.462	121.64	91.34	210.63	0.045	0.805	0.004	8	0	
3655.0	2.455	125.07	90.85	205.94	0.051	0.783	0.002	8	0	
3655.5	2.463	126.72	90.67	201.26	0.051	1.005	0.005	8	0	
3656.0	2.461	128.01	89.93	197.19	0.005	0.693	0.001	8	0	
3656.5	2.465	121.78	89.19	194.27	0.064	0.665	0.001	8	0	
3657.0	2.464	111.37	88.74	191.59	0.072	0.905	0.003	8	0	
3657.5	2.472	103.85	87.9	188.29	0.022	0.862	0.005	8	0	
3658.0	2.480	102.84	86.94	186.45	0.032	0.861	0.004	8	0	
3658.5	2.485	104.95	86.51	185.92	0.035	0.861	0.004	8	0	
3659.0	2.484	106.03	86.31	183.95	0.034	0.845	0.003	8	0	
3659.5	2.481	102.82	86.02	181.86	0.034	0.863	0.002	8	0	
3660.0	2.491	103.34	86.77	182.19	0.032	0.852	0.002	8	0	
3660.5	2.504	104.73	87.91	182.81	0.032	0.822	0.004	8	0	
3661.0	2.491	108.24	89.22	182.17	0.031	0.825	0.004	8	0	
3661.5	2.473	104.95	90.46	181.9	0.031	0.814	0.001	8	0	
3662.0	2.462	106.74	91.52	182.39	0.035	0.762	0.003	8	0	
3662.5	2.461	98.69	92.68	184.44	0.044	0.701	0.172	8	0	
3663.0	2.463	94.52	93.19	186.18	0.061	0.671	0.172	8	0	
