~Version Information									
VERS.		2.0:   CWLS log ASCII Standard -VERSION 2.0								
WRAP.		NO:   One line per depth step								
~Well Information Block									
#MNEM.UNIT	Data T	ype    Information								
#---------	--------	---    ---------------------------								
STRT.F		3380.0000:								
STOP.F		6790:00:00								
STEP.F		0.5000:								
NULL.		-999.2500:								
UWI .		EJEMPLO:  UWI								
API .		EJEMPLO:  UWI								
WELL.		EJEMPLO:  COMMON WELL NAME								
COMP.		UNKNOWN:  WELL OPERATOR								
FLD .		UNKNOWN:  FIELD								
LIC .		UNKNOWN:  AUTHORIZATION NO								
LOC .		VMM:  BASIN								
CTRY.		UNKNOWN:  COUNTRY								
STAT.		UNKNOWN:  STATE								
CNTY.		UNKNOWN:  COUNTY								
PROV.		UNKNOWN:  STATE								
SRVC.		UNKNOWN:  COMPANY								
DATE.		UNKNOWN:  LOG RUN DATE								
LONG.	"	-72.8"	9:  LONGITUDE								
LATI.	"	6.0"	0:  LATITUDE								
XCOORD.	"	1000"	00:  X COORDINATE								
YCOORD.	"	1000"	00:  Y COORDINATE								
ELEV.FT	280.0000:  ELEVATION								
TD  .FT	6869.0005:  TOTAL DEPTH								
~Parameter Information	Block								
#MNEM.UNIT	Value	Description								
#---------	--------	---    ---------------------------								
~Curve Information Block								
#MNEM.UNIT		API CODE     Curve Description								
#---------		-----------    ---------------------------								
DEPTH.F		00 000 000 000:  Index Curve								
DEN.g/cm3		00 000 000 000:								
GR .GAPI		00 000 000 000:								
DT.us/ft		00 : Sonic P wave								
DTS.us/ft		00 : Sonic Shear wave								
PHIE.v/v		00 : Effective porosity from Petrophysics								
VSH.v/v			00 : Volume of Shale from Petrophysics							
SW.v/v			00 : Water Saturation from Petrophysics							
ROCKTYPE.		00 : Rocktype from Petrophysics								
ROCK_VSH.		00 : Shale - Sand from Vsh cutoff from Petrophysics								
										
~A DEPTH	DEN	GR	DT	DTS	PHIE	VSH	SW	ROCKTYPE	ROCK_VSH	
# ...
6735.0	2.500	80.98	72.23	161.71	0.044	0.865	0.001	8	0	
6735.5	2.520	80.45	71.94	158.39	0.032	0.874	0.002	8	0	
6736.0	2.530	84.17	70.92	152.09	0.035	1.003	0.005	8	0	
6736.5	2.554	84.83	69.29	146.11	0.001	1.001	0.005	8	0	
6737.0	2.574	84.86	68.61	141.01	0.001	1.002	0.002	8	0	
6737.5	2.580	87.27	68.31	136.53	0.004	1.004	0.001	8	0	
6738.0	2.561	91.88	68.33	135.36	0.001	0.775	0.005	8	0	
6738.5	2.534	96.35	69.32	136.2	0.044	0.783	0.003	8	0	
6739.0	2.500	95.36	71.63	139.87	0.043	0.823	0.002	8	0	
6739.5	2.512	93.61	74.29	143.24	0.044	0.861	0.004	8	0	
6740.0	2.525	94.6	76.85	146.17	0.035	1.002	0.001	8	0	
6740.5	2.530	100.58	78.25	151.39	0.005	1.003	0.002	8	0	
6741.0	2.530	102.99	78.27	154.2	0.003	1.004	0.004	8	0	
6741.5	2.541	99.53	76.47	154.63	0.003	0.955	0.005	8	0	
6742.0	2.553	89.72	75.97	154.73	0.012	0.942	0.004	8	0	
6742.5	2.544	87.52	78.72	153.75	0.014	0.951	0.001	8	0	
6743.0	2.522	90.03	81.48	152.2	0.013	0.933	0.003	8	0	
6743.5	2.533	92.88	82.16	152.23	0.025	0.881	0.001	8	0	
6744.0	2.525	92.88	82.27	152.94	0.032	0.702	0.004	8	0	
6744.5	2.510	86.08	83.66	153.72	0.064	0.483	-0.039	8	0	
6745.0	2.485	78.63	84.65	156.77	0.102	0.383	0.013	5	1	
6745.5	2.452	77.01	86.5	161.87	0.111	0.302	0.033	5	1	
6746.0	2.444	77.53	87.9	169.04	0.135	0.281	0.041	4	1	
6746.5	2.423	80.16	87.48	175.12	0.141	0.341	0.043	4	1	
6747.0	2.424	72.62	86.84	176.49	0.134	0.384	0.042	4	1	
6747.5	2.440	73.28	86.52	175.06	0.123	0.552	0.045	5	1	
6748.0	2.452	74.59	86.38	174.91	0.083	0.512	0.011	5	0	
6748.5	2.461	78.88	85.91	176.46	0.094	0.873	0.032	5	0	
6749.0	2.475	80.19	85.43	177.37	0.024	0.753	0.003	8	0	
6749.5	2.472	87.65	85.09	178.74	0.054	0.824	0.003	8	0	
6750.0	2.494	87.12	83.78	181.54	0.044	0.903	0.001	8	0	
6750.5	2.500	95.23	83.2	184.26	0.025	0.965	0.001	8	0	
6751.0	2.513	94.77	82.53	182.5	0.015	1.003	0.001	8	0	
6751.5	2.523	102.37	81.41	177.38	0.002	0.983	0.004	8	0	
6752.0	2.500	94.7	81.66	174.66	0.015	0.981	0.005	8	0	
6752.5	2.493	88.65	82.17	174.09	0.014	0.924	0.001	8	0	
6753.0	2.475	84.93	82.56	174.21	0.024	0.935	0.004	8	0	
6753.5	2.482	85.53	82.77	174.64	0.023	0.943	0.004	8	0	
6754.0	2.493	87.87	82.96	175.92	0.015	0.955	0.003	8	0	
6754.5	2.525	84.14	83.18	177.48	0.015	0.924	0.002	8	0	
6755.0	2.520	88.37	83.52	182.2	0.023	0.943	0.001	8	0	
6755.5	2.515	90.34	83.64	184.87	0.022	0.942	0.002	8	0	
6756.0	2.505	90.98	83.14	184.97	0.014	0.972	0.002	8	0	
6756.5	2.503	86.14	82.65	186.6	0.014	0.973	0.003	8	0	
6757.0	2.504	84.17	82.3	186.39	0.013	1.005	0.005	8	0	
6757.5	2.511	88.18	81.74	184.6	0.001	0.994	0.002	8	0	
6758.0	2.515	86.43	81.4	182.86	0.003	1.005	0.001	8	0	
6758.5	2.512	82.26	81.14	183.3	0.002	0.965	0.004	8	0	
6759.0	2.513	84.23	80.59	185.04	0.011	0.965	0.001	8	0	
6759.5	2.510	89.06	80.26	186.73	0.013	0.954	0.003	8	0	
6760.0	2.513	89.93	80.64	187.21	0.011	0.933	0.004	8	0	
6760.5	2.502	91.47	81.1	186.32	0.025	0.905	0.003	8	0	
6761.0	2.512	90.16	81.08	179.99	0.025	0.875	0.002	8	0	
6761.5	2.525	91.86	80.72	172.87	0.034	1.004	0.003	8	0	
6762.0	2.535	89.62	80.39	166.77	0.002	0.841	0.005	8	0	
6762.5	2.530	93.49	79.7	157.98	0.031	1.001	0.002	8	0	
6763.0	2.541	93.1	78.68	151.65	0.004	1.001	0.002	8	0	
6763.5	2.562	88.06	76.47	146.58	0.001	0.865	0.002	8	0	
6764.0	2.570	78.76	74.47	143.63	0.032	0.854	0.001	8	0	
6764.5	2.580	78.76	74.48	143.41	0.035	0.852	0.005	8	0	
6765.0	2.560	86.04	74.65	143.35	0.031	0.895	0.002	8	0	
6765.5	2.560	88.84	74.09	144.21	0.022	0.875	0.001	8	0	
6766.0	2.550	92.35	74.71	144.44	0.032	0.862	0.001	8	0	
6766.5	2.553	89.56	74.17	143.67	0.034	0.835	0.004	8	0	
6767.0	2.551	89.34	73.35	143.98	0.033	0.844	0.001	8	0	
6767.5	2.563	86.25	73.94	146.08	0.033	0.805	0.003	8	0	
6768.0	2.563	84.61	76.27	148.89	0.033	0.765	0.004	8	0	
6768.5	2.560	87.02	79.35	150.32	0.045	0.715	0.002	8	0	
6769.0	2.533	92.96	80.34	150.08	0.054	0.652	0.002	8	0	
6769.5	2.534	94.1	81.32	149.64	0.065	0.545	0.023	8	0	
6770.0	2.534	96.95	80.97	147.56	0.095	0.345	0.023	5	0	
6770.5	2.520	85.75	79.97	142.65	0.123	0.182	0.053	5	1	
6771.0	2.484	76.71	79.38	138.36	0.144	0.085	0.062	4	1	
6771.5	2.431	63.13	76.84	135.81	0.153	0.053	0.035	4	1	
6772.0	2.425	58.99	75.74	134.47	0.152	0.054	0.024	4	1	
6772.5	2.430	62.93	75.84	134.73	0.143	0.205	0.031	4	1	
6773.0	2.474	68.67	74.76	136.25	0.114	0.323	0.085	5	1	
6773.5	2.504	78.54	75.07	138.34	0.101	0.384	0.084	5	1	
6774.0	2.501	79.64	75.91	142.29	0.095	0.442	0.072	5	1	
6774.5	2.495	81.35	75.95	144.23	0.092	0.535	0.055	5	1	
6775.0	2.511	75.21	76.02	141.89	0.085	0.645	0.072	6	0	
6775.5	2.541	78.69	76.01	135.16	0.061	0.614	-0.009	8	0	
6776.0	2.582	76.28	75.13	147.13	0.073	0.445	0.003	8	0	
6776.5	2.561	80.01	74.95	123.75	0.095	0.321	0.021	5	1	
6777.0	2.523	71.26	73.85	123.23	0.112	0.304	0.025	5	1	
6777.5	2.493	68.19	72.56	124.85	0.114	0.382	0.022	5	1	
6778.0	2.514	64.25	73.25	129.5	0.091	0.475	0.024	5	1	
6778.5	2.542	66.73	73.7	135.88	0.081	0.545	0.051	6	1	
6779.0	2.531	69.58	73.41	141.55	0.084	0.642	0.034	6	0	
6779.5	2.531	75.73	73.13	144.86	0.075	0.704	-0.027	8	0	
6780.0	2.533	74.34	72.85	145.14	0.063	0.844	-0.047	8	0	
6780.5	2.562	75.65	72.55	143.72	0.035	0.895	0.005	8	0	
6781.0	2.573	76.62	73.9	140.81	0.023	0.942	0.003	8	0	
6781.5	2.582	81.01	74.93	138.25	0.012	0.941	0.005	8	0	
6782.0	2.583	77.63	74.49	137.8	0.014	0.951	0.002	8	0	
6782.5	2.572	73.58	74.65	138.3	0.012	0.972	0.005	8	0	
6783.0	2.591	70.51	74.69	138.73	0.013	0.964	0.001	8	0	
6783.5	2.614	67.53	74.21	138.19	0.013	0.961	0.005	8	0	
6784.0	2.631	61.56	73.74	136.49	0.015	0.942	0.004	8	0	
6784.5	2.643	63.76	75.11	135.43	0.012	0.904	0.002	8	0	
6785.0	2.624	71.25	78.4	138.87	0.025	0.865	0.003	8	0	
6785.5	2.581	82.7	80.75	144.08	0.031	0.853	0.001	8	0	
6786.0	2.551	95.4	82.54	150.27	0.034	0.852	0.003	8	0	
6786.5	2.532	111.58	84.5	156.67	-999.25	-999.25	-999.25	-999.25	-999.25	
6787.0	2.571	128.03	85.37	160.02	-999.25	-999.25	-999.25	-999.25	-999.25	
6787.5	2.620	142.01	85.72	162.25	-999.25	-999.25	-999.25	-999.25	-999.25	
6788.0	2.681	145.73	85.85	163.67	-999.25	-999.25	-999.25	-999.25	-999.25	
6788.5	2.703	144.44	85.87	164.63	-999.25	-999.25	-999.25	-999.25	-999.25	
6789.0	2.714	140.78	86.29	165	-999.25	-999.25	-999.25	-999.25	-999.25	
6789.5	2.723	142.12	86.81	165.4	-999.25	-999.25	-999.25	-999.25	-999.25	
6790.0	2.734	144.73	86.85	166.03	-999.25	-999.25	-999.25	-999.25	-999.25	
