~Version Information									
VERS.		2.0:   CWLS log ASCII Standard -VERSION 2.0								
WRAP.		NO:   One line per depth step								
~Well Information Block									
#MNEM.UNIT	Data T	ype    Information								
#---------	--------	---    ---------------------------								
STRT.F		3380.0000:								
STOP.F		6790:00:00								
STEP.F		0.5000:								
NULL.		-999.2500:								
UWI .		EJEMPLO:  UWI								
API .		EJEMPLO:  UWI								
WELL.		EJEMPLO:  COMMON WELL NAME								
COMP.		UNKNOWN:  WELL OPERATOR								
FLD .		UNKNOWN:  FIELD								
LIC .		UNKNOWN:  AUTHORIZATION NO								
LOC .		VMM:  BASIN								
CTRY.		UNKNOWN:  COUNTRY								
STAT.		UNKNOWN:  STATE								
CNTY.		UNKNOWN:  COUNTY								
PROV.		UNKNOWN:  STATE								
SRVC.		UNKNOWN:  COMPANY								
DATE.		UNKNOWN:  LOG RUN DATE								
LONG.	"	-72.8"	9:  LONGITUDE								
LATI.	"	6.0"	0:  LATITUDE								
XCOORD.	"	1000"	00:  X COORDINATE								
YCOORD.	"	1000"	00:  Y COORDINATE								
ELEV.FT	280.0000:  ELEVATION								
TD  .FT	6869.0005:  TOTAL DEPTH								
~Parameter Information	Block								
#MNEM.UNIT	Value	Description								
#---------	--------	---    ---------------------------								
~Curve Information Block								
#MNEM.UNIT		API CODE     Curve Description								
#---------		-----------    ---------------------------								
DEPTH.F		00 000 000 000:  Index Curve								
DEN.g/cm3		00 000 000 000:								
GR .GAPI		00 000 000 000:								
DT.us/ft		00 : Sonic P wave								
DTS.us/ft		00 : Sonic Shear wave								
PHIE.v/v		00 : Effective porosity from Petrophysics								
VSH.v/v			00 : Volume of Shale from Petrophysics							
SW.v/v			00 : Water Saturation from Petrophysics							
ROCKTYPE.		00 : Rocktype from Petrophysics								
ROCK_VSH.		00 : Shale - Sand from Vsh cutoff from Petrophysics								
										
~A DEPTH	DEN	GR	DT	DTS	PHIE	VSH	SW	ROCKTYPE	ROCK_VSH	
# ...
5854.0	2.470	82.62	80.23	157.86	0.052	0.695	0.005	8	0	
5854.5	2.460	84.12	79.78	160.02	0.064	0.663	0.001	8	0	
5855.0	2.442	81.49	81.2	159.15	0.064	0.632	0.002	8	0	
5855.5	2.452	78.48	83.03	160.38	0.075	0.643	0.003	8	0	
5856.0	2.453	75.5	85.2	162.39	0.065	0.654	0.001	8	0	
5856.5	2.444	76.38	86.23	163.73	0.075	0.595	0.003	8	0	
5857.0	2.423	77.86	87.19	163.1	0.085	0.512	0.003	8	0	
5857.5	2.393	74.25	88.02	162.3	0.104	0.473	0.055	5	0	
5858.0	2.382	69.81	86.35	162.02	0.113	0.454	0.064	5	1	
5858.5	2.393	61.79	85.34	161.17	0.113	0.442	0.075	5	1	
5859.0	2.400	56.53	85.61	160.13	0.115	0.424	0.082	5	1	
5859.5	2.411	51.27	85.79	159.69	0.113	0.403	0.084	5	1	
5860.0	2.403	48.62	85.97	160.2	0.115	0.404	0.093	5	1	
5860.5	2.390	48.22	85.74	160.66	0.115	0.395	0.081	5	1	
5861.0	2.393	53.96	85.14	159.45	0.112	0.392	0.083	5	1	
5861.5	2.393	58.13	83.64	155.63	0.112	0.401	0.083	5	1	
5862.0	2.411	62.62	81.2	150.95	0.114	0.402	0.083	5	1	
5862.5	2.422	63.07	79.09	146.47	0.101	0.423	0.085	5	1	
5863.0	2.455	62.57	78.25	142.82	0.091	0.433	0.082	5	1	
5863.5	2.474	62.07	78.44	140.84	0.082	0.434	0.165	6	1	
5864.0	2.485	57.88	80.24	143.99	0.085	0.421	0.185	6	1	
5864.5	2.470	61.67	82.55	148.7	0.091	0.405	0.102	5	1	
5865.0	2.442	65.95	84.43	153.14	0.104	0.374	0.091	5	1	
5865.5	2.403	70.69	85.52	159.01	0.114	0.593	0.081	5	1	
5866.0	2.384	72.17	86.97	162.42	0.081	0.391	0.034	8	0	
5866.5	2.385	73.64	88.33	164.14	0.122	0.401	0.073	4	1	
5867.0	2.391	74.67	87.29	165.57	0.121	0.395	0.075	4	1	
5867.5	2.404	72.09	86.22	167.04	0.125	0.375	0.075	4	1	
5868.0	2.390	65.85	86.08	168.01	0.134	0.395	0.081	4	1	
5868.5	2.405	60.57	86.08	168.2	0.125	0.402	0.084	4	1	
5869.0	2.413	61.39	85.63	167.38	0.111	0.462	0.093	5	1	
5869.5	2.440	62.12	84.33	166.05	0.102	0.491	0.092	5	1	
5870.0	2.454	66.93	83.02	161.72	0.093	0.493	0.093	5	1	
5870.5	2.444	68.91	81.78	153.29	0.095	0.463	0.092	5	1	
5871.0	2.431	71.21	81.01	147.5	0.104	0.485	0.094	5	1	
5871.5	2.441	73.91	80.95	143.94	0.091	0.522	0.081	5	1	
5872.0	2.465	77.2	81.08	140.57	0.084	0.553	0.164	6	0	
5872.5	2.473	79.91	79.96	140.83	0.082	0.493	0.042	6	0	
5873.0	2.450	72.67	79.2	142.94	0.095	0.433	0.101	5	1	
5873.5	2.420	65.4	79.99	145.54	0.105	0.413	0.101	5	1	
5874.0	2.380	59.4	80.39	148.56	0.115	0.411	0.095	5	1	
5874.5	2.372	60.88	80.73	151.06	0.125	0.472	0.095	5	1	
5875.0	2.381	59.38	81.48	154.65	0.102	0.524	0.083	5	1	
5875.5	2.415	65.88	82.58	158.89	0.095	0.541	0.062	5	0	
5876.0	2.440	66.96	82.67	163.32	0.083	0.515	0.042	6	0	
5876.5	2.434	70.71	82.49	167.74	0.083	0.484	0.055	5	0	
5877.0	2.412	73.22	83.69	171.04	0.094	0.502	0.065	5	1	
5877.5	2.382	72.41	85.01	174.41	0.092	0.594	0.073	5	1	
5878.0	2.393	77.18	85.83	177.5	0.084	0.642	0.005	8	0	
5878.5	2.425	82.68	85.87	177.33	0.071	0.763	0.003	8	0	
5879.0	2.475	88.2	84.72	173.7	0.052	0.845	0.001	8	0	
5879.5	2.521	87.42	83.73	169.61	0.032	0.823	0.001	8	0	
5880.0	2.555	80.36	83.24	163.76	0.031	0.753	0.003	8	0	
5880.5	2.542	80.11	82.42	158.98	0.045	0.715	0.004	8	0	
5881.0	2.525	81.9	81.52	160.96	0.053	0.693	0.002	8	0	
5881.5	2.484	78.94	81.1	160.53	0.063	0.695	0.001	8	0	
5882.0	2.464	80.69	81.12	156.37	0.062	0.664	0.002	8	0	
5882.5	2.451	77.66	81.13	155.76	0.064	0.661	0.003	8	0	
5883.0	2.463	79.08	81.37	156.57	0.061	0.662	0.005	8	0	
5883.5	2.465	75.32	81.96	159.83	0.065	0.672	0.004	8	0	
5884.0	2.473	77.35	83	162.01	0.063	0.683	0.004	8	0	
5884.5	2.461	74.43	83.69	162.51	0.061	0.682	0.003	8	0	
5885.0	2.453	74.38	83.5	163.68	0.063	0.674	0.005	8	0	
5885.5	2.422	75.89	83.57	164.31	0.073	0.642	0.005	8	0	
5886.0	2.413	81.4	83.12	163.53	0.085	0.625	0.002	8	0	
5886.5	2.412	82.94	82.41	163.06	0.081	0.594	0.002	8	0	
5887.0	2.422	77.18	81.14	163.51	0.084	0.582	0.002	8	0	
5887.5	2.431	70.42	79.8	163.21	0.082	0.591	0.004	8	0	
5888.0	2.440	68.66	79.33	162.22	0.083	0.882	0.003	8	0	
5888.5	2.453	71.14	79.22	159.02	0.023	0.911	0.004	8	0	
5889.0	2.443	74.44	80.3	155.86	0.022	0.911	0.001	8	0	
5889.5	2.424	71.69	81.87	155.37	0.021	0.523	0.004	8	0	
5890.0	2.403	67.93	82.58	156.93	0.094	0.455	0.061	5	0	
5890.5	2.384	66.4	83.39	160.24	0.112	0.375	0.084	5	1	
5891.0	2.351	67.91	83.63	165.26	0.135	0.375	0.083	4	1	
5891.5	2.330	64.15	82.8	170.08	0.141	0.381	0.084	3	1	
5892.0	2.334	62.39	82.56	172.39	0.144	0.443	0.081	3	1	
5892.5	2.350	58.38	82.31	171.11	0.124	0.545	0.074	4	1	
5893.0	2.395	62.13	82.07	167.63	0.091	1.003	0.072	5	0	
5893.5	2.452	66.4	81.82	163.76	0.002	0.755	0.004	8	0	
5894.0	2.512	75.68	81.35	160.54	0.052	1.004	0.003	8	0	
5894.5	2.535	81.96	81.96	158.04	0.005	0.765	0.005	8	0	
5895.0	2.522	88.69	82.93	154.1	0.044	0.703	0.004	8	0	
5895.5	2.504	84.68	82.93	152.11	0.053	0.642	0.003	8	0	
5896.0	2.492	84.41	82.93	152.14	0.064	0.641	0.005	8	0	
5896.5	2.480	79.93	82.93	151.39	0.065	0.602	0.001	8	0	
5897.0	2.470	78.43	82.93	152.12	0.071	0.563	0.005	8	0	
5897.5	2.461	74.42	84.37	154.77	0.095	0.485	0.055	8	0	
5898.0	2.441	72.72	87.01	159.26	0.101	0.451	0.064	5	1	
5898.5	2.433	72.47	88.5	163.89	0.112	0.352	0.062	5	1	
5899.0	2.403	77.23	90.56	169.34	0.134	0.523	0.061	4	1	
5899.5	2.363	75.92	91.62	172.4	0.102	0.394	0.023	5	0	
5900.0	2.330	75.26	89.66	171.74	0.133	0.503	0.071	4	1	
5900.5	2.364	69.52	86.17	170.31	0.104	0.592	0.084	5	0	
5901.0	2.425	67.74	84.18	166.89	0.074	0.644	0.002	8	0	
5901.5	2.473	67.16	84.7	164.37	0.063	0.673	0.001	8	0	
5902.0	2.492	66.88	85.19	164.29	0.063	0.655	0.004	8	0	
5902.5	2.481	67.16	86.75	166.85	0.061	0.554	0.004	8	0	
5903.0	2.454	71.17	88	170.58	0.085	0.385	0.113	8	0	
5903.5	2.424	70.42	88.2	172.84	0.132	0.321	0.082	4	1	
5904.0	2.374	67.16	87.88	174.96	0.151	0.331	0.094	3	1	
5904.5	2.351	68.12	86.53	175.26	0.151	0.341	0.103	3	1	
5905.0	2.343	64.11	85.93	172.19	0.152	0.411	0.102	3	1	
5905.5	2.371	64.61	83.78	167.88	0.123	0.611	0.092	4	1	
5906.0	2.420	58.87	81.64	164.15	0.082	0.725	0.001	8	0	
5906.5	2.505	67.66	82.34	163.26	0.051	0.785	0.001	8	0	
5907.0	2.545	73.88	83.83	164.82	0.044	0.624	0.004	8	0	
5907.5	2.531	74.41	86.34	166.37	0.074	0.373	0.113	8	0	
5908.0	2.464	71.37	87.59	168.51	0.134	0.222	0.091	4	1	
5908.5	2.393	66.65	88.6	171.48	0.174	0.132	0.091	2	1	
5909.0	2.354	65.08	90.21	174.19	0.191	0.114	0.094	2	1	
5909.5	2.334	60.07	90.15	175.96	0.202	0.103	0.103	1	1	
5910.0	2.321	55.56	89.59	176.63	0.215	0.123	0.103	1	1	
5910.5	2.325	54.38	89.22	175.73	0.203	0.154	0.101	1	1	
5911.0	2.332	52.87	89.08	173.92	0.195	0.235	0.114	2	1	
5911.5	2.330	56.38	88.49	172.11	0.184	0.303	0.111	2	1	
5912.0	2.354	59.87	88.76	170.29	0.164	0.362	0.122	2	1	
5912.5	2.380	68.16	89.22	169.01	0.143	0.313	0.121	3	1	
5913.0	2.404	73.22	87.47	168.42	0.153	0.284	0.111	3	1	
5913.5	2.403	77.51	86.49	168.57	0.164	0.205	0.124	2	1	
5914.0	2.364	74.23	87.48	169.7	0.182	0.115	0.122	2	1	
5914.5	2.342	72.17	88	171.37	0.205	0.074	0.112	2	1	
5915.0	2.325	67.38	88.39	173.07	0.211	0.081	0.091	1	1	
5915.5	2.320	66.91	88.47	174.01	0.211	0.092	0.105	1	1	
5916.0	2.321	64.4	88.06	174.1	0.214	0.124	0.112	1	1	
5916.5	2.340	63.47	88.06	173.45	0.203	0.124	0.122	1	1	
5917.0	2.365	64.95	88.15	171.96	0.191	0.145	0.123	2	1	
5917.5	2.385	64.2	86.7	170.16	0.181	0.151	0.133	2	1	
5918.0	2.403	65.63	85.52	168.53	0.175	0.153	0.133	2	1	
5918.5	2.400	67.16	86.03	166.94	0.171	0.143	0.135	2	1	
5919.0	2.405	66.77	85.7	166.21	0.171	0.113	0.121	2	1	
5919.5	2.384	65.27	85.77	166.31	0.182	0.115	0.114	2	1	
5920.0	2.382	58.5	86.6	165.93	0.181	0.131	0.113	2	1	
5920.5	2.370	56.63	86.99	164.04	0.181	0.195	0.105	2	1	
5921.0	2.381	58.88	87.43	163.4	0.175	0.235	0.104	2	1	
5921.5	2.421	61.14	88	165.84	0.154	0.232	0.122	3	1	
5922.0	2.450	61.04	88.46	167.7	0.141	0.203	0.142	4	1	
5922.5	2.452	53.53	89.04	167.64	0.153	0.161	0.141	3	1	
5923.0	2.412	49.77	87.84	166.99	0.174	0.183	0.133	2	1	
5923.5	2.375	49.62	85.65	165.33	0.183	0.224	0.112	2	1	
5924.0	2.385	55.38	85.82	162.74	0.161	0.301	0.101	3	1	
5924.5	2.422	60.89	86.5	160.62	0.135	0.304	0.115	4	1	
5925.0	2.463	66.08	86.25	158.06	0.121	0.265	0.111	5	1	
5925.5	2.473	61.83	85.58	155.9	0.132	0.255	0.111	4	1	
5926.0	2.450	53.55	84.22	155.27	0.132	0.261	0.104	4	1	
5926.5	2.431	51.87	83.51	153.65	0.132	0.241	0.101	4	1	
5927.0	2.432	53.12	83.97	151.91	0.135	0.235	0.105	4	1	
