~Version Information									
VERS.		2.0:   CWLS log ASCII Standard -VERSION 2.0								
WRAP.		NO:   One line per depth step								
~Well Information Block									
#MNEM.UNIT	Data T	ype    Information								
#---------	--------	---    ---------------------------								
STRT.F		3380.0000:								
STOP.F		6790:00:00								
STEP.F		0.5000:								
NULL.		-999.2500:								
UWI .		EJEMPLO:  UWI								
API .		EJEMPLO:  UWI								
WELL.		EJEMPLO:  COMMON WELL NAME								
COMP.		UNKNOWN:  WELL OPERATOR								
FLD .		UNKNOWN:  FIELD								
LIC .		UNKNOWN:  AUTHORIZATION NO								
LOC .		VMM:  BASIN								
CTRY.		UNKNOWN:  COUNTRY								
STAT.		UNKNOWN:  STATE								
CNTY.		UNKNOWN:  COUNTY								
PROV.		UNKNOWN:  STATE								
SRVC.		UNKNOWN:  COMPANY								
DATE.		UNKNOWN:  LOG RUN DATE								
LONG.	"	-72.8"	9:  LONGITUDE								
LATI.	"	6.0"	0:  LATITUDE								
XCOORD.	"	1000"	00:  X COORDINATE								
YCOORD.	"	1000"	00:  Y COORDINATE								
ELEV.FT	280.0000:  ELEVATION								
TD  .FT	6869.0005:  TOTAL DEPTH								
~Parameter Information	Block								
#MNEM.UNIT	Value	Description								
#---------	--------	---    ---------------------------								
~Curve Information Block								
#MNEM.UNIT		API CODE     Curve Description								
#---------		-----------    ---------------------------								
DEPTH.F		00 000 000 000:  Index Curve								
DEN.g/cm3		00 000 000 000:								
GR .GAPI		00 000 000 000:								
DT.us/ft		00 : Sonic P wave								
DTS.us/ft		00 : Sonic Shear wave								
PHIE.v/v		00 : Effective porosity from Petrophysics								
VSH.v/v			00 : Volume of Shale from Petrophysics							
SW.v/v			00 : Water Saturation from Petrophysics							
ROCKTYPE.		00 : Rocktype from Petrophysics								
ROCK_VSH.		00 : Shale - Sand from Vsh cutoff from Petrophysics								
										
~A DEPTH	DEN	GR	DT	DTS	PHIE	VSH	SW	ROCKTYPE	ROCK_VSH	
3380.0	2.455	110.66	102.72	208.44	-999.25	-999.25	-999.25	-999.25	-999.25	
3380.5	2.422	112.12	103.2	222.3	-999.25	-999.25	-999.25	-999.25	-999.25	
3381.0	2.405	109.86	103.11	225.42	-999.25	-999.25	-999.25	-999.25	-999.25	
3381.5	2.405	118.73	101.56	223.58	-999.25	-999.25	-999.25	-999.25	-999.25	
3382.0	2.401	128.8	99.26	221.74	-999.25	-999.25	-999.25	-999.25	-999.25	
3382.5	2.402	135.77	96.97	220.89	-999.25	-999.25	-999.25	-999.25	-999.25	
3383.0	2.394	143.13	93.35	216.95	-999.25	-999.25	-999.25	-999.25	-999.25	
3383.5	2.393	140.37	90.64	208.9	-999.25	-999.25	-999.25	-999.25	-999.25	
3384.0	2.404	139.67	89.82	200.99	-999.25	-999.25	-999.25	-999.25	-999.25	
3384.5	2.430	128.55	89.48	193.22	-999.25	-999.25	-999.25	-999.25	-999.25	
3385.0	2.450	116.77	92.32	186.51	-999.25	-999.25	-999.25	-999.25	-999.25	
3385.5	2.485	109.24	96.35	184.34	-999.25	-999.25	-999.25	-999.25	-999.25	
3386.0	2.494	108.49	98.46	184.53	-999.25	-999.25	-999.25	-999.25	-999.25	
3386.5	2.504	111.49	98	184.79	-999.25	-999.25	-999.25	-999.25	-999.25	
3387.0	2.503	109	97.83	185.34	-999.25	-999.25	-999.25	-999.25	-999.25	
3387.5	2.481	101.79	98.87	184.8	-999.25	-999.25	-999.25	-999.25	-999.25	
3388.0	2.442	92.99	99.74	184.37	-999.25	-999.25	-999.25	-999.25	-999.25	
3388.5	2.380	86.47	100.72	184.33	-999.25	-999.25	-999.25	-999.25	-999.25	
3389.0	2.321	84.92	101.26	184.64	-999.25	-999.25	-999.25	-999.25	-999.25	
3389.5	2.311	88.76	102.45	186.11	-999.25	-999.25	-999.25	-999.25	-999.25	
3390.0	2.335	92.02	103.85	188.77	-999.25	-999.25	-999.25	-999.25	-999.25	
3390.5	2.330	100.32	104.93	189.93	0.211	0.152	0.075	1	1	
3391.0	2.313	98.23	104.01	189.92	0.222	0.054	0.071	1	1	
3391.5	2.283	96.73	102.92	189.71	0.261	0.051	0.063	1	1	
3392.0	2.265	92.17	103.55	190.1	0.263	0.051	0.051	1	1	
3392.5	2.233	95.17	104.17	190.7	0.271	0.053	0.034	1	1	
3393.0	2.201	87.9	104.72	191.44	0.272	0.051	0.025	1	1	
3393.5	2.212	80.9	104.72	192.17	0.274	0.062	0.035	1	1	
3394.0	2.234	78.68	104.26	191.24	0.263	0.104	0.044	1	1	
3394.5	2.244	86.71	103.79	190.06	0.252	0.123	0.065	1	1	
3395.0	2.235	90.86	103.32	189.04	0.251	0.094	0.052	1	1	
3395.5	2.220	92.58	102.85	189.01	0.263	0.053	0.045	1	1	
3396.0	2.220	94.33	101.09	188.25	0.264	0.051	0.043	1	1	
3396.5	2.243	92.18	94.42	185.72	0.252	0.055	0.031	1	1	
3397.0	2.252	83.43	97.47	183.17	0.253	0.064	0.025	1	1	
3397.5	2.242	76.67	91.9	182.43	0.252	0.053	0.012	1	1	
3398.0	2.240	74.44	89.79	178.94	0.254	0.054	0.011	1	1	
3398.5	2.243	77.93	93.37	174.43	0.253	0.053	0.011	1	1	
3399.0	2.251	77.68	93.17	171.61	0.241	0.052	0.021	1	1	
3399.5	2.270	82.66	92.96	167.91	0.243	0.121	0.031	1	1	
3400.0	2.285	80.18	92.27	166.64	0.212	0.201	0.055	1	1	
3400.5	2.291	83.4	91.49	164.83	0.201	0.214	0.071	1	1	
3401.0	2.290	81.68	82.12	161	0.193	0.254	0.075	2	1	
3401.5	2.291	83.15	85	162.72	0.171	0.315	0.083	2	1	
3402.0	2.304	83.19	88.78	168.06	0.164	0.445	0.072	2	1	
3402.5	2.311	96.18	92	171.97	0.131	0.595	0.124	4	1	
3403.0	2.330	118.69	95.94	189.84	0.091	0.712	0.001	8	0	
3403.5	2.365	147.02	100.13	214.19	0.072	0.841	0.005	8	0	
3404.0	2.380	155.33	102.49	231.78	0.051	0.852	0.004	8	0	
3404.5	2.393	163.88	103.67	243.01	0.043	0.824	0.005	8	0	
3405.0	2.395	164.01	104.82	245.22	0.051	0.803	0.005	8	0	
3405.5	2.404	170.28	104.79	243.68	0.052	0.863	0.004	8	0	
3406.0	2.412	166.77	103.94	242.43	0.042	0.852	0.002	8	0	
3406.5	2.412	161.62	103.93	240.29	0.043	0.912	0.004	8	0	
3407.0	2.405	152.55	103.76	235.62	0.032	0.913	0.001	8	0	
3407.5	2.402	146.09	103.01	230.94	0.033	0.923	0.002	8	0	
3408.0	2.410	143.35	103.05	226.27	0.021	0.874	0.003	8	0	
3408.5	2.410	149.91	103.07	221.6	0.043	0.891	0.001	8	0	
3409.0	2.402	150.61	102.3	217.53	0.032	0.922	0.004	8	0	
3409.5	2.402	153.36	101.54	213.98	0.032	0.954	0.001	8	0	
3410.0	2.420	151.55	100.77	205.5	0.011	0.905	0.002	8	0	
3410.5	2.425	151.3	100	192.79	0.032	0.881	0.002	8	0	
3411.0	2.420	149.8	98.65	185.13	0.033	0.893	0.002	8	0	
3411.5	2.405	142.08	98.37	187.14	0.035	0.884	0.001	8	0	
3412.0	2.401	137.07	98.44	194.45	0.034	0.894	0.005	8	0	
3412.5	2.403	135.17	99.2	207.07	0.033	0.831	0.005	8	0	
3413.0	2.411	140.69	101.18	223.51	0.044	0.794	0.004	8	0	
3413.5	2.400	142.44	101.6	231.64	0.052	0.823	0.004	8	0	
3414.0	2.402	142.83	101.22	232.92	0.051	0.885	0.004	8	0	
3414.5	2.404	138.82	100.83	234.19	0.033	0.945	0.002	8	0	
3415.0	2.422	135.82	100.45	235.47	0.024	0.912	0.001	8	0	
3415.5	2.432	133.89	100.06	236.75	0.033	0.823	0.003	8	0	
3416.0	2.444	134.64	99.68	233.86	0.042	0.811	0.001	8	0	
3416.5	2.464	133.39	98.71	229.3	0.041	0.812	0.002	8	0	
3417.0	2.463	129.55	97.74	227.04	0.04	0.852	0.001	8	0	
3417.5	2.441	127	97.34	224.58	0.042	0.835	0.001	8	0	
3418.0	2.410	130.55	96.94	222.11	0.053	0.825	0.002	8	0	
3418.5	2.390	139.21	96.18	217.95	0.054	0.794	0.001	8	0	
3419.0	2.400	135.75	95.48	210.53	0.062	0.782	0.004	8	0	
3419.5	2.412	131.44	95.42	202.21	0.062	0.723	0.001	8	0	
3420.0	2.420	124.54	95.61	200.99	0.073	0.651	0.003	8	0	
3420.5	2.421	127.5	95.68	205.1	0.084	0.633	0.005	8	0	
3421.0	2.422	127.97	96.34	209.94	0.083	0.593	0.003	8	0	
3421.5	2.414	122.2	97.71	219.92	0.094	0.722	0.082	8	0	
3422.0	2.393	112.97	99.07	226.34	0.063	0.744	0.094	8	0	
3422.5	2.365	103.24	100.43	225.3	0.064	0.514	0.112	8	0	
3423.0	2.353	98.81	100.63	223.66	0.113	0.864	0.115	4	0	
3423.5	2.351	101.57	99.77	222.02	0.031	0.924	0.002	8	0	
3424.0	2.361	110.83	99.01	220.48	0.022	0.642	0.003	8	0	
3424.5	2.392	114.26	98.26	218.5	0.084	0.683	0.005	8	0	
3425.0	2.411	120.53	97.5	215.09	0.075	0.715	0.003	8	0	
3425.5	2.430	121.28	97.86	209.62	0.064	0.781	0.004	8	0	
3426.0	2.441	123.79	98.71	206.59	0.053	0.793	0.004	8	0	
3426.5	2.434	120.01	98.93	204.24	0.052	0.833	0.001	8	0	
3427.0	2.402	120.26	99.15	200.29	0.051	0.855	0.003	8	0	
3427.5	2.385	118.26	99.36	196.23	0.042	0.804	0.004	8	0	
3428.0	2.380	122.78	99.58	192.73	0.053	0.821	0.005	8	0	
3428.5	2.405	122.78	99.29	190.74	0.054	0.831	0.004	8	0	
3429.0	2.425	128.94	98.96	190.33	0.043	0.864	0.001	8	0	
3429.5	2.445	132.45	99.11	191.89	0.041	0.821	0.005	8	0	
3430.0	2.420	137.96	99.27	194.21	0.053	0.821	0.005	8	0	
3430.5	2.401	139.82	99.43	202.49	0.052	0.852	0.005	8	0	
3431.0	2.393	139.24	99.58	217.34	0.043	0.905	0.002	8	0	
3431.5	2.405	136.49	99.87	226.35	0.031	0.882	0.005	8	0	
3432.0	2.394	140.25	100.29	227.99	0.042	0.851	0.001	8	0	
3432.5	2.392	143.84	100.48	227.21	0.044	0.814	0.002	8	0	
3433.0	2.383	149.1	100.2	223.19	0.053	0.834	0.004	8	0	
3433.5	2.392	150.6	99.34	218.34	0.051	0.804	0.002	8	0	
3434.0	2.401	151.39	97.71	213.5	0.052	0.822	0.002	8	0	
3434.5	2.434	149.39	95.83	208.74	0.041	0.805	0.001	8	0	
3435.0	2.441	146.38	92.96	199.58	0.05	0.771	0.002	8	0	
3435.5	2.452	142.83	90.07	186.41	0.053	0.764	0.002	8	0	
3436.0	2.445	147.84	88.3	172.85	0.051	0.731	0.005	8	0	
3436.5	2.442	143.08	88.21	167.74	0.061	0.734	0.001	8	0	
3437.0	2.453	139.02	89.75	171.97	0.063	0.763	0.004	8	0	
3437.5	2.450	128.12	91.22	176.21	0.055	0.785	0.005	8	0	
3438.0	2.461	120.85	93.3	180.45	0.055	0.803	0.001	8	0	
3438.5	2.452	118.14	96.65	186.29	0.055	0.781	0.002	8	0	
3439.0	2.434	118.77	98.66	193.85	0.052	0.812	0.001	8	0	
3439.5	2.425	128.22	98.66	201.52	0.052	0.865	0.004	8	0	
3440.0	2.422	130.47	99.63	210.46	0.044	0.903	0.005	8	0	
3440.5	2.443	139.49	101.44	217.42	0.034	0.931	0.002	8	0	
3441.0	2.450	140.58	103.11	220.56	0.025	0.931	0.002	8	0	
3441.5	2.442	154.37	103.21	223.14	0.024	0.932	0.003	8	0	
3442.0	2.422	149.36	101.46	225.45	0.022	0.925	0.001	8	0	
3442.5	2.405	151.1	101.02	227.64	0.032	0.873	0.005	8	0	
3443.0	2.402	144.09	101.61	229.94	0.043	0.855	0.003	8	0	
3443.5	2.434	144.71	101.61	232.24	0.043	0.864	0.002	8	0	
3444.0	2.451	143.41	101.61	234.54	0.035	0.924	0.003	8	0	
3444.5	2.465	144.41	101.61	234.84	0.022	0.955	0.001	8	0	
3445.0	2.461	152.05	101.61	233.62	0.013	0.982	0.003	8	0	
3445.5	2.463	157.11	101.61	232.87	0.015	0.981	0.005	8	0	
3446.0	2.452	153.6	101.61	232.13	0.011	0.981	0.002	8	0	
3446.5	2.442	149.25	101.01	231.39	0.013	0.951	0.004	8	0	
3447.0	2.440	140.93	100.36	227.63	0.012	0.912	0.002	8	0	
3447.5	2.451	139.93	100.25	223.84	0.024	0.835	0.003	8	0	
3448.0	2.444	126.5	100.13	223.04	0.041	0.812	0.002	8	0	
