~Version Information									
VERS.		2.0:   CWLS log ASCII Standard -VERSION 2.0								
WRAP.		NO:   One line per depth step								
~Well Information Block									
#MNEM.UNIT	Data T	ype    Information								
#---------	--------	---    ---------------------------								
STRT.F		3380.0000:								
STOP.F		6790:00:00								
STEP.F		0.5000:								
NULL.		-999.2500:								
UWI .		EJEMPLO:  UWI								
API .		EJEMPLO:  UWI								
WELL.		EJEMPLO:  COMMON WELL NAME								
COMP.		UNKNOWN:  WELL OPERATOR								
FLD .		UNKNOWN:  FIELD								
LIC .		UNKNOWN:  AUTHORIZATION NO								
LOC .		VMM:  BASIN								
CTRY.		UNKNOWN:  COUNTRY								
STAT.		UNKNOWN:  STATE								
CNTY.		UNKNOWN:  COUNTY								
PROV.		UNKNOWN:  STATE								
SRVC.		UNKNOWN:  COMPANY								
DATE.		UNKNOWN:  LOG RUN DATE								
LONG.	"	-72.8"	9:  LONGITUDE								
LATI.	"	6.0"	0:  LATITUDE								
XCOORD.	"	1000"	00:  X COORDINATE								
YCOORD.	"	1000"	00:  Y COORDINATE								
ELEV.FT	280.0000:  ELEVATION								
TD  .FT	6869.0005:  TOTAL DEPTH								
~Parameter Information	Block								
#MNEM.UNIT	Value	Description								
#---------	--------	---    ---------------------------								
~Curve Information Block								
#MNEM.UNIT		API CODE     Curve Description								
#---------		-----------    ---------------------------								
DEPTH.F		00 000 000 000:  Index Curve								
DEN.g/cm3		00 000 000 000:								
GR .GAPI		00 000 000 000:								
DT.us/ft		00 : Sonic P wave								
DTS.us/ft		00 : Sonic Shear wave								
PHIE.v/v		00 : Effective porosity from Petrophysics								
VSH.v/v			00 : Volume of Shale from Petrophysics							
SW.v/v			00 : Water Saturation from Petrophysics							
ROCKTYPE.		00 : Rocktype from Petrophysics								
ROCK_VSH.		00 : Shale - Sand from Vsh cutoff from Petrophysics								
										
~A DEPTH	DEN	GR	DT	DTS	PHIE	VSH	SW	ROCKTYPE	ROCK_VSH	
# ...
5415.0	2.451	58.4	84.85	159.49	0.071	0.591	0.004	8	0	
5415.5	2.443	61.17	84.76	154.58	0.073	0.593	0.003	8	0	
5416.0	2.444	62.9	84.21	153.63	0.072	0.603	0.005	8	0	
5416.5	2.455	62.9	84.13	155.72	0.072	0.622	0.003	8	0	
5417.0	2.454	61.37	84.19	156.91	0.073	0.625	0.002	8	0	
5417.5	2.442	60.34	84.57	158.68	0.072	0.594	0.001	8	0	
5418.0	2.425	55.96	87.54	162.65	0.075	0.561	0.005	8	0	
5418.5	2.411	55.3	88.57	165.85	0.085	0.541	0.005	8	0	
5419.0	2.402	55.82	86.52	166.93	0.085	0.561	0.051	5	0	
5419.5	2.411	52.97	86.21	167.93	0.081	0.581	0.001	8	0	
5420.0	2.424	51.66	85.9	167.2	0.072	0.592	0.002	8	0	
5420.5	2.442	49.9	85.7	164.72	0.073	0.595	0.003	8	0	
5421.0	2.460	55.38	85.98	164.67	0.064	0.594	0.002	8	0	
5421.5	2.480	51.36	86.15	167.2	0.064	0.594	0.004	8	0	
5422.0	2.492	52.11	85.98	170.25	0.063	0.593	0.001	8	0	
5422.5	2.480	49.26	84.34	168.58	0.062	0.572	0.001	8	0	
5423.0	2.451	54.29	81.66	164.72	0.073	0.595	0.004	8	0	
5423.5	2.443	60.86	79.91	161.09	0.073	0.644	0.005	8	0	
5424.0	2.443	64.59	79.8	158.33	0.073	0.691	0.003	8	0	
5424.5	2.450	65.57	80.02	158.33	0.063	0.682	0.004	8	0	
5425.0	2.443	61.19	81.15	158.33	0.061	0.655	0.002	8	0	
5425.5	2.441	60.31	81.84	156.26	0.075	0.625	0.002	8	0	
5426.0	2.441	68.35	81.42	155.32	0.074	0.634	0.002	8	0	
5426.5	2.450	69.67	81.65	157.39	0.074	0.612	0.001	8	0	
5427.0	2.440	70.55	81.93	158.33	0.072	0.611	0.002	8	0	
5427.5	2.444	62.25	82.66	158.33	0.071	0.612	0.005	8	0	
5428.0	2.430	57.65	83.86	158.4	0.074	0.642	0.004	8	0	
5428.5	2.443	61.54	86.02	159.62	0.071	0.662	0.003	8	0	
5429.0	2.453	64.85	88.4	161.92	0.064	0.684	0.001	8	0	
5429.5	2.451	72.3	90.38	164.22	0.065	0.693	0.003	8	0	
5430.0	2.454	68.77	92.13	166.52	0.064	0.674	0.003	8	0	
5430.5	2.455	69.64	93.25	169.72	0.065	0.673	0.003	8	0	
5431.0	2.444	72.49	93.33	175.42	0.064	0.655	0.003	8	0	
5431.5	2.421	70.76	92.52	184.64	0.072	0.653	0.002	8	0	
5432.0	2.412	68.35	91.63	195.77	0.074	0.611	0.004	8	0	
5432.5	2.390	61.34	90.22	200.54	0.083	0.601	0.001	8	0	
5433.0	2.390	62.82	88.61	194.96	0.082	0.573	0.003	8	0	
5433.5	2.385	60.84	87.35	184.83	0.085	0.574	0.002	8	0	
5434.0	2.383	59.09	86.32	175.18	0.081	0.613	0.002	8	0	
5434.5	2.414	63.8	85.87	166.55	0.084	0.671	0.004	8	0	
5435.0	2.454	69.79	86.73	156.73	0.064	1.005	0.003	8	0	
5435.5	2.493	78.78	88.09	178.44	0.001	0.745	0.005	8	0	
5436.0	2.523	78.35	88.72	175.64	0.054	0.655	0.003	8	0	
5436.5	2.523	87.46	89.21	177.39	0.063	0.604	0.002	8	0	
5437.0	2.513	85.81	89.7	153	0.072	0.564	0.091	8	0	
5437.5	2.485	85.8	89.59	162.27	0.084	0.555	0.083	8	0	
5438.0	2.470	76.4	90.03	173.96	0.085	0.525	0.125	6	0	
5438.5	2.443	74.9	88.07	181.54	0.095	0.512	0.064	5	0	
5439.0	2.452	70.95	85.32	182.14	0.092	0.495	0.073	5	0	
5439.5	2.465	65.25	84.75	178.71	0.084	0.471	0.165	6	1	
5440.0	2.462	58.72	84.45	172.18	0.083	0.465	0.045	6	1	
5440.5	2.440	59.37	84.85	167.13	0.083	0.483	0.044	6	1	
5441.0	2.431	62.22	85.24	166.47	0.095	0.511	0.053	5	1	
5441.5	2.425	65.99	86.78	167.49	0.083	0.522	0.055	5	0	
5442.0	2.430	63.78	88.19	168.91	0.085	0.541	0.043	6	0	
5442.5	2.444	65.53	87.04	170.3	0.084	0.554	0.042	6	0	
5443.0	2.431	66.19	85.7	171.14	0.082	0.552	0.004	8	0	
5443.5	2.425	63.66	83.5	170.56	0.082	0.542	0.002	8	0	
5444.0	2.424	59.94	83.08	168.25	0.081	0.552	0.055	6	0	
5444.5	2.445	57.78	82.55	164.05	0.072	0.565	0.005	8	0	
5445.0	2.440	56.82	81.84	159.45	0.071	0.561	0.005	8	0	
5445.5	2.455	50.47	83.06	157.93	0.072	0.565	0.005	8	0	
5446.0	2.453	44.44	84.04	158.16	0.071	0.552	0.001	8	0	
5446.5	2.461	43.34	85.75	160.17	0.074	0.555	0.002	8	0	
5447.0	2.474	44.03	87	165.06	0.062	0.535	0.004	8	0	
5447.5	2.463	47.18	88.15	172.32	0.074	0.535	0.021	6	0	
5448.0	2.453	51.56	88.49	182.89	0.075	0.551	0.034	6	0	
5448.5	2.452	57.81	88.25	192.96	0.073	0.604	0.033	6	0	
5449.0	2.453	64.6	88.42	196.81	0.074	0.661	0.003	8	0	
5449.5	2.450	72.06	88.82	196.81	0.063	0.721	0.005	8	0	
5450.0	2.462	80.1	88.82	195.37	0.064	0.833	0.003	8	0	
5450.5	2.481	91.94	88.03	191.53	0.041	0.903	0.001	8	0	
5451.0	2.492	91.5	87.41	186.14	0.024	0.942	0.003	8	0	
5451.5	2.490	94.72	86.38	180.17	0.011	0.991	0.005	8	0	
5452.0	2.513	89.97	84.64	172.6	0.001	0.985	0.002	8	0	
5452.5	2.535	90.18	83.12	166.17	0.013	0.972	0.005	8	0	
5453.0	2.531	91.23	81.42	160.89	0.015	0.881	0.004	8	0	
5453.5	2.524	91.38	79.83	157.43	0.032	0.862	0.001	8	0	
5454.0	2.540	90.06	78.51	155.74	0.034	0.874	0.005	8	0	
5454.5	2.565	86.8	78.26	154.55	0.033	0.912	0.003	8	0	
5455.0	2.571	90.09	84.22	156.47	0.021	0.892	0.005	8	0	
5455.5	2.563	97.87	90.72	159.49	0.024	0.864	0.004	8	0	
5456.0	2.540	99.86	92.12	164.45	0.031	0.775	0.001	8	0	
5456.5	2.511	96.35	92.41	174.54	0.041	0.725	0.003	8	0	
5457.0	2.504	89.23	91.77	184.1	0.054	0.655	0.002	8	0	
5457.5	2.475	88.24	90.9	189.72	0.073	0.573	0.004	8	0	
5458.0	2.442	88.68	88.53	187.45	0.083	0.512	0.024	8	0	
5458.5	2.422	88.02	86.6	182.28	0.104	0.471	0.054	5	0	
5459.0	2.415	84.24	86.76	183.73	0.104	0.444	0.065	5	1	
5459.5	2.410	77.44	87.12	184.26	0.114	0.374	0.064	5	1	
5460.0	2.404	75.69	87.47	181.95	0.124	0.311	0.062	5	1	
5460.5	2.385	69.95	88.68	181.5	0.133	0.304	0.064	4	1	
5461.0	2.374	68.41	89.52	180.71	0.145	0.355	0.061	4	1	
5461.5	2.383	64.92	89.07	177.97	0.133	0.393	0.071	4	1	
5462.0	2.382	70.83	87.87	175.46	0.123	0.332	0.075	5	1	
5462.5	2.374	69.3	85.69	168.91	0.133	0.283	0.062	4	1	
5463.0	2.353	66.31	82.58	160.11	0.143	0.332	0.041	3	1	
5463.5	2.373	60.39	80.32	152.72	0.131	0.375	0.044	4	1	
5464.0	2.405	56.87	80.18	144.86	0.111	0.444	0.053	5	1	
5464.5	2.432	55.02	81.3	142.66	0.093	0.501	0.064	5	1	
5465.0	2.440	59.62	83.13	148.75	0.082	0.601	0.041	6	0	
5465.5	2.451	69.67	84.85	157.29	0.072	0.675	0.005	8	0	
5466.0	2.463	85.02	85.64	168.22	0.061	0.774	0.002	8	0	
5466.5	2.472	84.36	85.56	178.61	0.052	0.845	0.005	8	0	
5467.0	2.471	86.58	85.23	181.58	0.042	0.875	0.001	8	0	
5467.5	2.460	85.05	84.89	180.46	0.031	0.894	0.004	8	0	
5468.0	2.462	85.71	85	179.96	0.034	0.873	0.004	8	0	
5468.5	2.475	85.74	84.23	179.46	0.032	0.932	0.005	8	0	
5469.0	2.495	86.62	83.08	178.96	0.023	0.895	0.004	8	0	
5469.5	2.482	95.17	82.57	178.24	0.035	0.903	0.003	8	0	
5470.0	2.484	95.67	81.73	174.35	0.022	0.864	0.005	8	0	
5470.5	2.473	94.98	82.69	168.56	0.034	0.872	0.005	8	0	
5471.0	2.495	88.18	84.29	163.48	0.032	0.861	0.003	8	0	
5471.5	2.504	85.68	84.96	160.78	0.032	0.823	0.005	8	0	
5472.0	2.520	79.79	85.84	163.25	0.035	0.801	0.003	8	0	
5472.5	2.535	80.2	86.72	168.45	0.042	0.802	0.002	8	0	
5473.0	2.525	81.98	87.61	176.36	0.044	0.844	0.005	8	0	
5473.5	2.500	87.02	87.87	184.23	0.032	0.873	0.001	8	0	
5474.0	2.480	96.47	88.57	188.18	0.035	0.912	0.004	8	0	
5474.5	2.470	98.67	90.01	190.11	0.022	0.922	0.001	8	0	
5475.0	2.472	107.22	90.37	189.64	0.023	0.933	0.002	8	0	
5475.5	2.463	107.22	89.83	184.68	0.024	0.901	0.002	8	0	
5476.0	2.450	107.51	88.94	175.87	0.034	0.873	0.005	8	0	
5476.5	2.465	100.49	86.73	167.89	0.035	0.762	0.001	8	0	
5477.0	2.474	92.82	84.75	161.56	0.065	0.562	0.001	8	0	
5477.5	2.461	87.78	84.06	155.26	0.104	0.414	-0.065	8	0	
5478.0	2.421	83.39	83.57	149.79	0.122	0.315	0.014	4	1	
5478.5	2.391	79.11	84.23	149.83	0.144	0.193	0.012	3	1	
5479.0	2.385	72.68	85.5	152.94	0.163	0.172	0.012	2	1	
5479.5	2.385	65.88	85.68	154.16	0.173	0.134	0.014	2	1	
5480.0	2.360	58.34	84.8	151.74	0.181	0.055	0.002	2	1	
5480.5	2.355	54.61	83.05	151.52	0.205	0.083	0.003	2	1	
5481.0	2.360	54.17	81.3	153.56	0.195	0.201	0.001	2	1	
5481.5	2.360	56.2	81.14	148.88	0.175	0.231	0.001	2	1	
5482.0	2.370	60.58	82.1	148.95	0.164	0.401	0.013	3	1	
5482.5	2.383	65.36	83.03	153.32	0.123	0.495	0.011	4	1	
5483.0	2.383	60.03	83.85	159.87	0.102	0.564	0.012	5	1	
5483.5	2.363	53.67	83.74	168.46	0.092	0.631	-0.028	8	0	
5484.0	2.362	46.26	82.33	175.21	0.083	0.712	-0.036	8	0	
5484.5	2.360	49.77	81.64	183.02	0.064	0.764	-0.035	8	0	
5485.0	2.385	53.66	82.08	188.18	0.051	0.512	-0.009	8	0	
5485.5	2.384	57.83	82.22	189.24	0.101	0.565	0.085	5	0	
5486.0	2.381	67.14	82.78	188.84	0.101	0.612	0.005	8	0	
5486.5	2.364	75.09	84.12	188.17	0.091	0.705	0.004	8	0	
5487.0	2.375	83.37	84.78	185.35	0.074	0.754	0.002	8	0	
5487.5	2.392	86.33	84.9	182.65	0.063	0.805	0.003	8	0	
5488.0	2.423	89.4	85.29	178.44	0.052	0.804	0.005	8	0	
