~Version Information									
VERS.		2.0:   CWLS log ASCII Standard -VERSION 2.0								
WRAP.		NO:   One line per depth step								
~Well Information Block									
#MNEM.UNIT	Data T	ype    Information								
#---------	--------	---    ---------------------------								
STRT.F		3380.0000:								
STOP.F		6790:00:00								
STEP.F		0.5000:								
NULL.		-999.2500:								
UWI .		EJEMPLO:  UWI								
API .		EJEMPLO:  UWI								
WELL.		EJEMPLO:  COMMON WELL NAME								
COMP.		UNKNOWN:  WELL OPERATOR								
FLD .		UNKNOWN:  FIELD								
LIC .		UNKNOWN:  AUTHORIZATION NO								
LOC .		VMM:  BASIN								
CTRY.		UNKNOWN:  COUNTRY								
STAT.		UNKNOWN:  STATE								
CNTY.		UNKNOWN:  COUNTY								
PROV.		UNKNOWN:  STATE								
SRVC.		UNKNOWN:  COMPANY								
DATE.		UNKNOWN:  LOG RUN DATE								
LONG.	"	-72.8"	9:  LONGITUDE								
LATI.	"	6.0"	0:  LATITUDE								
XCOORD.	"	1000"	00:  X COORDINATE								
YCOORD.	"	1000"	00:  Y COORDINATE								
ELEV.FT	280.0000:  ELEVATION								
TD  .FT	6869.0005:  TOTAL DEPTH								
~Parameter Information	Block								
#MNEM.UNIT	Value	Description								
#---------	--------	---    ---------------------------								
~Curve Information Block								
#MNEM.UNIT		API CODE     Curve Description								
#---------		-----------    ---------------------------								
DEPTH.F		00 000 000 000:  Index Curve								
DEN.g/cm3		00 000 000 000:								
GR .GAPI		00 000 000 000:								
DT.us/ft		00 : Sonic P wave								
DTS.us/ft		00 : Sonic Shear wave								
PHIE.v/v		00 : Effective porosity from Petrophysics								
VSH.v/v			00 : Volume of Shale from Petrophysics							
SW.v/v			00 : Water Saturation from Petrophysics							
ROCKTYPE.		00 : Rocktype from Petrophysics								
ROCK_VSH.		00 : Shale - Sand from Vsh cutoff from Petrophysics								
										
~A DEPTH	DEN	GR	DT	DTS	PHIE	VSH	SW	ROCKTYPE	ROCK_VSH	
# ...
6294.0	2.441	48.83	84.04	151.26	0.071	0.643	0.003	8	0	
6294.5	2.460	53.47	84.32	151.22	0.064	0.553	0.001	8	0	
6295.0	2.454	58.52	84.43	150.2	0.084	0.431	0.095	5	0	
6295.5	2.431	56.14	82.25	149.44	0.105	0.372	0.092	5	1	
6296.0	2.421	53.74	78.71	148.79	0.115	0.331	0.102	5	1	
6296.5	2.451	54.24	77	149.74	0.101	0.335	0.092	5	1	
6297.0	2.463	59.29	76.17	151.55	0.102	0.404	0.104	5	1	
6297.5	2.465	65.3	75.51	152.08	0.091	0.525	0.105	5	1	
6298.0	2.440	71.31	75.51	151.81	0.084	0.613	0.042	6	0	
6298.5	2.433	78.55	75.68	150.9	0.074	0.705	0.005	8	0	
6299.0	2.461	79.05	77.43	149.58	0.062	0.793	0.003	8	0	
6299.5	2.502	82.06	80.29	147.62	0.041	1.002	0.001	8	0	
6300.0	2.534	86.44	84.3	145.47	0.003	1.004	0.005	8	0	
6300.5	2.520	89.98	85.57	164.06	0.004	0.693	0.004	8	0	
6301.0	2.481	90.53	84.2	144.75	0.064	0.561	0.001	8	0	
6301.5	2.450	80.74	83.98	146.82	0.093	0.502	0.002	8	0	
6302.0	2.445	71.72	82.84	149.04	0.101	0.541	0.042	5	0	
6302.5	2.444	62.95	82.61	150.94	0.082	0.631	0.051	5	0	
6303.0	2.465	66.96	83.27	152.66	0.064	0.665	0.001	8	0	
6303.5	2.470	68.46	83.22	154.03	0.065	0.705	0.001	8	0	
6304.0	2.461	75.48	83.9	154.31	0.063	0.673	0.001	8	0	
6304.5	2.452	74.22	86.63	153.88	0.065	0.543	0.003	8	0	
6305.0	2.421	72.99	88.73	153.53	0.095	0.455	0.064	5	0	
6305.5	2.383	65.17	90.09	153.55	0.113	0.333	0.081	5	1	
6306.0	2.354	60.43	90.42	153.67	0.152	0.313	0.081	3	1	
6306.5	2.353	65.7	89.39	153.36	0.155	0.263	0.081	3	1	
6307.0	2.374	65.93	88.44	153.15	0.163	0.203	0.095	3	1	
6307.5	2.392	68.27	87.4	152.71	0.163	0.173	0.093	3	1	
6308.0	2.395	63.73	86.46	151.78	0.165	0.162	0.104	3	1	
6308.5	2.385	60.23	85.56	150.76	0.161	0.141	0.101	3	1	
6309.0	2.392	59.79	84.96	149.47	0.162	0.162	0.102	3	1	
6309.5	2.402	63.05	84.69	148.12	0.155	0.184	0.101	3	1	
6310.0	2.412	74.81	84.49	147.15	0.155	0.174	0.101	3	1	
6310.5	2.412	84.18	84.41	146.34	0.153	0.163	0.104	3	1	
6311.0	2.403	81.4	84.7	146.26	0.165	0.123	0.103	3	1	
6311.5	2.361	78.99	85.36	147.32	0.182	0.103	0.104	2	1	
6312.0	2.343	66.46	86.27	147.64	0.191	0.101	0.093	2	1	
6312.5	2.340	63.06	86.11	146.42	0.191	0.114	0.105	2	1	
6313.0	2.373	52.46	86.35	146.28	0.182	0.121	0.101	2	1	
6313.5	2.392	50.71	85.81	146.79	0.175	0.144	0.112	3	1	
6314.0	2.390	48.95	84.18	146.9	0.164	0.154	0.113	3	1	
6314.5	2.382	49.95	84.5	147.45	0.175	0.143	0.112	3	1	
6315.0	2.375	49.45	85.58	148	0.171	0.151	0.115	2	1	
6315.5	2.370	53.62	86.44	148.24	0.164	0.201	0.113	3	1	
6316.0	2.382	53.89	86.64	148.33	0.153	0.233	0.121	3	1	
6316.5	2.394	52.28	85.86	147.95	0.152	0.181	0.114	3	1	
6317.0	2.391	46.01	84.7	146.82	0.164	0.175	0.104	3	1	
6317.5	2.391	47.44	83.68	145.93	0.164	0.184	0.105	3	1	
6318.0	2.401	51.3	82.23	145.08	0.155	0.211	0.102	4	1	
6318.5	2.423	60.07	80.14	144.26	0.141	0.285	0.115	4	1	
6319.0	2.435	63.79	78.06	143.71	0.122	0.371	0.115	5	1	
6319.5	2.454	63.29	76.64	142.97	0.111	0.473	0.113	5	1	
6320.0	2.465	60.8	75.94	141.73	0.093	0.561	0.111	5	1	
6320.5	2.472	59.13	75.61	140.92	0.071	0.631	0.002	8	0	
6321.0	2.471	62.39	75.75	140.52	0.063	0.654	0.004	8	0	
6321.5	2.462	60.19	78.05	140.96	0.065	0.624	0.004	8	0	
6322.0	2.455	61.97	81.15	143.47	0.071	0.622	0.001	8	0	
6322.5	2.453	59.74	82.52	146.48	0.071	0.612	0.005	8	0	
6323.0	2.451	63.17	83.53	149.35	0.074	0.602	0.001	8	0	
6323.5	2.440	57.65	84.22	153.53	0.072	0.585	0.005	8	0	
6324.0	2.412	57.87	84.22	157	0.081	0.585	0.005	8	0	
6324.5	2.410	51.61	82.92	158.77	0.085	0.574	0.002	8	0	
6325.0	2.423	53.74	80.74	160.28	0.083	0.595	0.004	8	0	
6325.5	2.431	56.75	80.09	160.99	0.074	0.612	0.002	8	0	
6326.0	2.443	65.77	80.39	160.47	0.073	0.632	0.003	8	0	
6326.5	2.463	71.47	79.79	158.44	0.062	0.653	0.003	8	0	
6327.0	2.482	72.72	79.33	156.81	0.062	0.642	0.005	8	0	
6327.5	2.491	68.07	80.5	156.69	0.063	0.631	0.001	8	0	
6328.0	2.481	64.01	81.2	156.63	0.061	0.611	0.003	8	0	
6328.5	2.472	58.97	80.3	156.76	0.063	0.632	0.003	8	0	
6329.0	2.475	58.53	79.62	158.17	0.063	0.653	0.004	8	0	
6329.5	2.480	55.03	80.39	159.39	0.064	0.642	0.001	8	0	
6330.0	2.495	57.28	81.55	159.7	0.065	0.621	0.004	8	0	
6330.5	2.472	54.87	82.17	160.49	0.063	0.604	0.003	8	0	
6331.0	2.454	57.12	82.55	162.05	0.075	0.615	0.001	8	0	
6331.5	2.443	53.22	83.37	165.3	0.075	0.621	0.001	8	0	
6332.0	2.434	54.73	84.8	170.14	0.073	0.603	0.002	8	0	
6332.5	2.412	56.47	86.22	175.53	0.085	0.601	0.002	8	0	
6333.0	2.404	54.49	86.53	178.86	0.081	0.605	0.001	8	0	
6333.5	2.405	53.99	85.62	180.25	0.083	0.614	0.005	8	0	
6334.0	2.424	51.66	84.29	179.14	0.072	0.624	0.005	8	0	
6334.5	2.445	54.53	83.37	175.83	0.074	0.664	0.003	8	0	
6335.0	2.465	65.3	83.11	171.44	0.064	0.672	0.001	8	0	
6335.5	2.461	79.12	82.93	166.35	0.062	0.671	0.001	8	0	
6336.0	2.455	88.88	82.93	163.99	0.064	0.704	0.002	8	0	
6336.5	2.472	85.65	82.13	164.64	0.061	0.741	0.004	8	0	
6337.0	2.481	82.71	81.46	166.7	0.054	0.765	0.001	8	0	
6337.5	2.505	81.74	81.32	167.78	0.051	0.752	0.002	8	0	
6338.0	2.501	86.34	80.83	167.71	0.052	0.775	0.003	8	0	
6338.5	2.532	90.32	81.71	167.48	0.042	0.835	0.003	8	0	
6339.0	2.551	98.09	81.29	164.38	0.031	0.815	0.001	8	0	
6339.5	2.545	100.72	81.58	158.48	0.031	0.784	0.001	8	0	
6340.0	2.524	101.72	82.83	154.12	0.042	0.701	0.001	8	0	
6340.5	2.494	95.22	81.31	152	0.061	0.623	0.001	8	0	
6341.0	2.460	82.2	80.37	150.51	0.072	0.571	0.001	8	0	
6341.5	2.462	75.77	80.37	150.93	0.075	0.621	0.004	8	0	
6342.0	2.480	71.22	80.23	152.93	0.065	0.651	0.005	8	0	
6342.5	2.501	73.72	80.21	154.36	0.052	0.693	0.002	8	0	
6343.0	2.502	71.97	79.79	154.7	0.051	0.713	0.001	8	0	
6343.5	2.502	79.77	78.17	152.51	0.051	0.771	0.002	8	0	
6344.0	2.521	83.7	75.76	148.63	0.045	0.792	0.005	8	0	
6344.5	2.564	84.87	74.21	144.72	0.031	0.792	0.003	8	0	
6345.0	2.585	82.62	73.47	142.09	0.035	0.772	0.001	8	0	
6345.5	2.581	83.06	73.49	141.57	0.032	0.802	0.003	8	0	
6346.0	2.581	82.56	73.89	141.99	0.032	0.812	0.001	8	0	
6346.5	2.582	79.05	74.15	143.16	0.035	0.805	0.004	8	0	
6347.0	2.571	77.73	74.49	145.87	0.034	0.803	0.003	8	0	
6347.5	2.564	80.99	75.14	149.97	0.034	0.744	0.003	8	0	
6348.0	2.553	86.58	76.67	156.18	0.041	0.723	0.004	8	0	
6348.5	2.544	88.79	77.72	161.64	0.055	0.685	0.001	8	0	
6349.0	2.545	87.06	79.05	164.44	0.052	0.651	0.005	8	0	
6349.5	2.530	85.75	79.92	166.54	0.064	0.555	0.002	8	0	
6350.0	2.531	87.97	80.02	167.64	0.071	0.451	0.083	8	0	
6350.5	2.520	87.74	80.75	167.24	0.091	0.441	0.074	5	1	
6351.0	2.502	87.47	81.13	165.6	0.094	0.432	0.085	5	1	
6351.5	2.505	88.47	81.24	164.88	0.105	0.341	0.093	5	1	
6352.0	2.500	84.31	82.03	167.78	0.105	0.281	0.102	5	1	
6352.5	2.503	83.3	82.86	171.14	0.123	0.165	0.122	5	1	
6353.0	2.445	73.49	83.46	168.28	0.153	0.113	0.123	3	1	
6353.5	2.395	73.38	83.23	156.78	0.172	0.051	0.105	2	1	
6354.0	2.344	64.33	82.25	143.32	0.193	0.055	0.082	2	1	
6354.5	2.341	61.92	81.89	138.37	0.195	0.053	0.072	2	1	
6355.0	2.354	53.65	81.5	139.18	0.192	0.053	0.075	2	1	
6355.5	2.360	50.14	80.66	139.36	0.193	0.051	0.063	2	1	
6356.0	2.352	42.91	79.87	137.89	0.194	0.051	0.064	2	1	
6356.5	2.353	44.91	79.2	135.41	0.185	0.054	0.051	2	1	
6357.0	2.374	50.18	77.94	133.55	0.161	0.054	0.053	3	1	
6357.5	2.404	56.62	76.94	131.73	0.153	0.055	0.051	4	1	
6358.0	2.423	58.4	76.79	130.76	0.152	0.074	0.054	4	1	
6358.5	2.423	56.4	77.36	130.21	0.164	0.092	0.054	3	1	
6359.0	2.410	61.19	78.62	132.55	0.164	0.092	0.062	3	1	
6359.5	2.383	61.84	79.23	137.03	0.172	0.072	0.073	2	1	
6360.0	2.350	63.83	80.19	139.98	0.193	0.051	0.065	2	1	
6360.5	2.331	60.5	81.23	141.78	0.203	0.052	0.061	2	1	
6361.0	2.352	55.81	80.85	142.23	0.191	0.053	0.064	2	1	
6361.5	2.385	52.55	80.18	142.05	0.171	0.054	0.071	3	1	
6362.0	2.412	52.37	79.68	141.27	0.165	0.072	0.073	3	1	
6362.5	2.411	55.31	79.75	139.8	0.162	0.085	0.082	3	1	
6363.0	2.402	57.04	79.63	138.25	0.172	0.074	0.082	3	1	
6363.5	2.403	57.52	78.66	135.62	0.174	0.062	0.063	3	1	
6364.0	2.413	62.86	78.07	132.55	0.161	0.121	0.052	3	1	
6364.5	2.412	63.52	77.27	131.37	0.152	0.241	0.065	4	1	
6365.0	2.442	66.29	76.76	131.73	0.121	0.403	0.082	5	1	
6365.5	2.462	65.27	77.88	134.97	0.093	0.535	0.105	5	1	
6366.0	2.485	70.53	78.92	139.9	0.075	0.585	0.033	6	0	
6366.5	2.483	76.29	79.47	146.14	0.071	0.624	0.003	8	0	
6367.0	2.484	80.98	80.06	155.22	0.064	0.653	0.002	8	0	
