~Version Information									
VERS.		2.0:   CWLS log ASCII Standard -VERSION 2.0								
WRAP.		NO:   One line per depth step								
~Well Information Block									
#MNEM.UNIT	Data T	ype    Information								
#---------	--------	---    ---------------------------								
STRT.F		3380.0000:								
STOP.F		6790:00:00								
STEP.F		0.5000:								
NULL.		-999.2500:								
UWI .		EJEMPLO:  UWI								
API .		EJEMPLO:  UWI								
WELL.		EJEMPLO:  COMMON WELL NAME								
COMP.		UNKNOWN:  WELL OPERATOR								
FLD .		UNKNOWN:  FIELD								
LIC .		UNKNOWN:  AUTHORIZATION NO								
LOC .		VMM:  BASIN								
CTRY.		UNKNOWN:  COUNTRY								
STAT.		UNKNOWN:  STATE								
CNTY.		UNKNOWN:  COUNTY								
PROV.		UNKNOWN:  STATE								
SRVC.		UNKNOWN:  COMPANY								
DATE.		UNKNOWN:  LOG RUN DATE								
LONG.	"	-72.8"	9:  LONGITUDE								
LATI.	"	6.0"	0:  LATITUDE								
XCOORD.	"	1000"	00:  X COORDINATE								
YCOORD.	"	1000"	00:  Y COORDINATE								
ELEV.FT	280.0000:  ELEVATION								
TD  .FT	6869.0005:  TOTAL DEPTH								
~Parameter Information	Block								
#MNEM.UNIT	Value	Description								
#---------	--------	---    ---------------------------								
~Curve Information Block								
#MNEM.UNIT		API CODE     Curve Description								
#---------		-----------    ---------------------------								
DEPTH.F		00 000 000 000:  Index Curve								
DEN.g/cm3		00 000 000 000:								
GR .GAPI		00 000 000 000:								
DT.us/ft		00 : Sonic P wave								
DTS.us/ft		00 : Sonic Shear wave								
PHIE.v/v		00 : Effective porosity from Petrophysics								
VSH.v/v			00 : Volume of Shale from Petrophysics							
SW.v/v			00 : Water Saturation from Petrophysics							
ROCKTYPE.		00 : Rocktype from Petrophysics								
ROCK_VSH.		00 : Shale - Sand from Vsh cutoff from Petrophysics								
										
~A DEPTH	DEN	GR	DT	DTS	PHIE	VSH	SW	ROCKTYPE	ROCK_VSH	
# ...
5634.5	2.484	83.17	79.64	175.22	0.001	1.004	0.004	8	0	
5635.0	2.504	83.39	79.76	180.56	0.002	1.004	0.005	8	0	
5635.5	2.510	88.87	79.9	181.43	0.005	1.005	0.005	8	0	
5636.0	2.515	87.15	80.5	178.41	0.001	0.721	0.003	8	0	
5636.5	2.510	90.44	81.84	175.2	0.052	0.485	0.002	8	0	
5637.0	2.463	89.29	83.72	173.78	0.105	0.222	0.013	5	1	
5637.5	2.404	86.99	85.98	172.83	0.165	0.102	0.004	3	1	
5638.0	2.330	82.82	87.57	172.22	0.202	0.074	-0.007	1	1	
5638.5	2.303	72.83	87.47	171.38	0.222	0.104	-0.016	1	1	
5639.0	2.300	66.25	86.04	170.12	0.221	0.103	-0.006	1	1	
5639.5	2.314	59.24	83.75	166.46	0.213	0.305	0.004	1	1	
5640.0	2.333	60.22	80.86	158.53	0.163	0.552	-0.009	2	1	
5640.5	2.362	57.59	78.86	149.59	0.092	0.782	-0.078	8	0	
5641.0	2.392	61.31	78.71	146.34	0.041	0.953	-0.027	8	0	
5641.5	2.404	62.09	79.45	147.93	0.013	1.003	0.005	8	0	
5642.0	2.420	68.66	81.4	156.29	0.004	1.001	0.005	8	0	
5642.5	2.443	75.46	83.82	167.83	0.001	0.852	0.003	8	0	
5643.0	2.495	80.7	85.02	172.65	0.033	0.884	0.005	8	0	
5643.5	2.512	86.84	85.28	174.17	0.034	0.791	0.003	8	0	
5644.0	2.491	85.66	85.67	174.17	0.041	0.671	0.005	8	0	
5644.5	2.454	82.57	86.01	175.44	0.072	0.612	0.005	8	0	
5645.0	2.414	73.15	84.55	177.46	0.084	0.561	0.003	8	0	
5645.5	2.383	73.65	83.01	177.63	0.091	0.523	0.004	8	0	
5646.0	2.364	74.09	82.46	176.44	0.112	0.491	0.105	5	0	
5646.5	2.351	74.28	85.3	175.25	0.111	0.485	0.114	4	1	
5647.0	2.354	72.28	87.75	174.06	0.115	0.485	0.032	4	1	
5647.5	2.350	68.33	86.2	172.87	0.111	0.492	0.032	4	1	
5648.0	2.363	66.38	84.31	173.45	0.115	0.525	0.105	5	1	
5648.5	2.371	58.61	82.07	174.43	0.103	0.533	0.094	5	0	
5649.0	2.392	56.2	80.26	176.85	0.091	0.573	0.071	5	0	
5649.5	2.421	58.88	79.53	182.37	0.082	0.625	0.001	8	0	
5650.0	2.453	68.89	80.47	187.58	0.074	0.721	0.002	8	0	
5650.5	2.472	82.92	84.18	192.18	0.052	0.845	0.004	8	0	
5651.0	2.481	94.93	86.85	196.77	0.045	0.942	0.004	8	0	
5651.5	2.471	96.95	86.85	199.07	0.023	0.971	0.005	8	0	
5652.0	2.462	95.85	86.85	199.07	0.015	0.925	0.003	8	0	
5652.5	2.445	91.61	86.85	199.07	0.024	0.885	0.004	8	0	
5653.0	2.413	93.75	86.67	199.07	0.035	0.835	0.005	8	0	
5653.5	2.385	90.1	86.22	197.37	0.054	0.833	0.003	8	0	
5654.0	2.373	86.68	85.99	194.25	0.052	0.855	0.003	8	0	
5654.5	2.404	85.8	85.88	192.64	0.041	0.841	0.002	8	0	
5655.0	2.413	81.26	84.94	192.09	0.044	0.821	0.001	8	0	
5655.5	2.423	78.63	83.24	190.41	0.053	0.812	0.004	8	0	
5656.0	2.412	72.27	81.45	188.33	0.052	0.774	0.003	8	0	
5656.5	2.413	73.23	78.79	181.63	0.062	0.812	0.003	8	0	
5657.0	2.414	76.56	77.01	172.35	0.052	0.813	0.004	8	0	
5657.5	2.444	74.37	75.47	165.55	0.052	0.833	0.003	8	0	
5658.0	2.464	80.07	73.27	157.26	0.043	1.003	0.005	8	0	
5658.5	2.475	81.29	72.38	151.19	0.004	1.004	0.002	8	0	
5659.0	2.481	87.43	72.8	149.58	0.003	1.005	0.001	8	0	
5659.5	2.481	86.33	73.66	149.58	0.004	1.001	0.001	8	0	
5660.0	2.475	83.86	73.93	150.1	0.004	1.004	0.001	8	0	
5660.5	2.461	86.93	74.13	150.12	0.004	1.002	0.002	8	0	
5661.0	2.450	85.17	75.44	149.11	0.003	1.003	0.004	8	0	
5661.5	2.452	89.4	77.48	147.41	0.002	1.005	0.002	8	0	
5662.0	2.462	81.29	79.65	146.12	0.002	1.004	0.005	8	0	
5662.5	2.485	87.65	82.93	148.97	0.001	0.965	0.004	8	0	
5663.0	2.481	87.48	85.54	156.73	0.014	0.945	0.002	8	0	
5663.5	2.480	89.65	87.29	163.67	0.012	0.801	0.004	8	0	
5664.0	2.481	83.51	88.34	170.14	0.044	0.815	0.005	8	0	
5664.5	2.471	76.5	87.99	174.17	0.045	0.811	0.005	8	0	
5665.0	2.462	84.63	87.41	174.17	0.041	0.814	0.002	8	0	
5665.5	2.453	86.16	86.57	173.28	0.045	0.791	0.003	8	0	
5666.0	2.452	89.45	86.56	173.2	0.053	0.742	0.003	8	0	
5666.5	2.461	82.22	86.78	173.01	0.063	0.654	0.003	8	0	
5667.0	2.450	82.17	85.87	173.06	0.075	0.592	0.005	8	0	
5667.5	2.425	85.9	84.86	174.47	0.081	0.525	0.005	8	0	
5668.0	2.390	85.68	80.33	174.63	0.104	0.525	0.082	5	0	
5668.5	2.381	81.56	75.98	174.61	0.103	0.564	0.081	5	0	
5669.0	2.391	82.26	75.91	174.08	0.094	0.961	0.005	8	0	
5669.5	2.435	80.95	76.35	172.11	0.014	0.974	0.005	8	0	
5670.0	2.473	85.11	76.81	169.35	0.015	1.002	0.003	8	0	
5670.5	2.492	84.63	76.87	165.67	0.001	1.003	0.003	8	0	
5671.0	2.494	90.11	76.64	160.77	0.001	1.001	0.001	8	0	
5671.5	2.482	87.56	76.38	156.91	0.002	1.004	0.002	8	0	
5672.0	2.463	82.73	76.11	154.89	0.005	1.002	0.005	8	0	
5672.5	2.452	79.66	76.27	153.49	0.004	1.003	0.004	8	0	
5673.0	2.452	82.22	76.57	152.98	0.003	1.001	0.005	8	0	
5673.5	2.460	80.9	78.5	155.59	0.001	1.004	0.003	8	0	
5674.0	2.471	80.38	80.87	161.1	0.005	0.814	0.004	8	0	
5674.5	2.475	82.79	82.67	168.82	0.041	0.835	0.003	8	0	
5675.0	2.463	84.77	84.43	177.04	0.045	0.802	0.003	8	0	
5675.5	2.445	86.16	85.36	184.1	0.055	0.813	0.002	8	0	
5676.0	2.433	89.23	86.38	190.59	0.055	0.824	0.003	8	0	
5676.5	2.440	91.85	86.94	192.97	0.044	0.834	0.001	8	0	
5677.0	2.454	92.72	86.58	189.77	0.044	0.852	0.002	8	0	
5677.5	2.455	91.41	85.48	180.95	0.045	0.895	0.003	8	0	
5678.0	2.452	88.58	84.29	171.76	0.034	0.912	0.003	8	0	
5678.5	2.451	87.3	83.32	166.64	0.023	0.894	0.002	8	0	
5679.0	2.484	77.88	82	163.75	0.035	0.875	0.003	8	0	
5679.5	2.510	79.63	79.82	162.85	0.032	0.864	0.004	8	0	
5680.0	2.521	78.71	80.11	162.85	0.035	0.823	0.004	8	0	
5680.5	2.515	83.31	82.7	162.85	0.043	0.774	0.004	8	0	
5681.0	2.493	83.39	84.31	162.85	0.055	0.721	0.001	8	0	
5681.5	2.492	82.07	85.52	162.85	0.051	0.644	0.005	8	0	
5682.0	2.471	80.98	86.88	165.71	0.072	0.561	0.003	8	0	
5682.5	2.445	76.52	91.25	169.34	0.084	0.554	-0.019	8	0	
5683.0	2.415	71.04	94.91	170.88	0.095	0.533	0.074	5	0	
5683.5	2.413	69.28	94.7	172.41	0.095	0.464	0.061	5	0	
5684.0	2.433	68.76	95.4	173.94	0.101	0.335	0.012	5	1	
5684.5	2.412	68.32	94.28	175.48	0.143	0.234	-0.005	4	1	
5685.0	2.364	67.88	91.18	179.03	0.171	0.231	-0.006	2	1	
5685.5	2.314	65.77	89.73	182.47	0.184	0.301	0.001	2	1	
5686.0	2.323	72.35	88.98	182.04	0.162	0.343	0.023	3	1	
5686.5	2.365	71.99	88.74	178.91	0.144	0.241	0.023	4	1	
5687.0	2.395	79.88	89.21	175.27	0.152	0.185	0.012	3	1	
5687.5	2.391	79.01	89.68	173.5	0.165	0.101	0.015	3	1	
5688.0	2.362	80.68	89.31	173.55	0.181	0.091	0.002	2	1	
5688.5	2.342	74.33	89.26	175.58	0.204	0.081	-0.006	2	1	
5689.0	2.311	68.26	89.2	176.98	0.211	0.062	-0.009	1	1	
5689.5	2.295	62.33	88.94	175.65	0.223	0.085	-0.019	1	1	
5690.0	2.292	62.15	89.04	173.98	0.225	0.083	-0.005	1	1	
5690.5	2.302	62.52	87.47	172.54	0.225	0.082	-0.008	1	1	
5691.0	2.310	66.25	85.53	171.1	0.225	0.081	-0.006	1	1	
5691.5	2.312	66.43	85.19	169.66	0.215	0.092	0.004	1	1	
5692.0	2.330	65.76	85.48	168.57	0.214	0.103	0.004	1	1	
5692.5	2.332	61.37	86.15	167.91	0.204	0.095	0.005	2	1	
5693.0	2.344	60.69	86.98	168.5	0.205	0.085	0.001	2	1	
5693.5	2.364	63.78	87.63	169.56	0.194	0.102	0.004	2	1	
5694.0	2.362	65.75	88.69	170.39	0.194	0.101	0.001	2	1	
5694.5	2.351	65.12	89.18	170.84	0.191	0.125	0.005	2	1	
5695.0	2.341	62.27	88.65	169.82	0.202	0.104	0.003	2	1	
5695.5	2.333	61.71	88.11	167.06	0.214	0.092	0.015	1	1	
5696.0	2.321	58.64	85.88	165.12	0.213	0.105	0.014	1	1	
5696.5	2.321	59.28	82.63	165.12	0.204	0.172	0.013	2	1	
5697.0	2.332	56.77	81.06	165.12	0.181	0.251	0.021	2	1	
5697.5	2.343	63.49	80.25	166.39	0.164	0.465	0.042	3	1	
5698.0	2.382	79.17	80.65	170.32	0.114	0.702	0.034	5	1	
5698.5	2.410	100.87	81.88	175.63	0.075	0.881	0.002	8	0	
5699.0	2.453	107.89	82.98	178.49	0.031	0.932	0.003	8	0	
5699.5	2.461	110.64	84.11	178.7	0.023	0.912	0.005	8	0	
5700.0	2.474	102.31	84.39	180.96	0.024	0.915	0.002	8	0	
5700.5	2.483	104.32	84.34	183.23	0.021	0.932	0.004	8	0	
5701.0	2.480	95.84	83.12	183.23	0.024	0.972	0.004	8	0	
5701.5	2.485	96.93	81.93	182.51	0.012	0.982	0.003	8	0	
5702.0	2.471	94.89	81.93	183.7	0.014	1.001	0.004	8	0	
5702.5	2.462	94.89	81.93	187.53	0.004	1.003	0.005	8	0	
5703.0	2.465	91.39	81.67	186.87	0.005	0.994	0.003	8	0	
5703.5	2.473	92.89	81.56	183.28	0.002	0.964	0.004	8	0	
5704.0	2.483	95.65	81.85	180.92	0.014	1.004	0.002	8	0	
5704.5	2.484	100.69	83.89	178.43	0.003	1.003	0.003	8	0	
5705.0	2.462	102.44	86.19	175.77	0.004	1.005	0.004	8	0	
5705.5	2.410	105.45	86.35	172.67	0.005	1.001	0.004	8	0	
5706.0	2.411	105.01	85.78	169.57	0.001	1.003	0.003	8	0	
5706.5	2.422	99.03	83.74	166.48	0.005	1.005	0.001	8	0	
5707.0	2.464	93.99	80.11	163.38	0.003	1.002	0.005	8	0	
