~Version Information									
VERS.		2.0:   CWLS log ASCII Standard -VERSION 2.0								
WRAP.		NO:   One line per depth step								
~Well Information Block									
#MNEM.UNIT	Data T	ype    Information								
#---------	--------	---    ---------------------------								
STRT.F		3380.0000:								
STOP.F		6790:00:00								
STEP.F		0.5000:								
NULL.		-999.2500:								
UWI .		EJEMPLO:  UWI								
API .		EJEMPLO:  UWI								
WELL.		EJEMPLO:  COMMON WELL NAME								
COMP.		UNKNOWN:  WELL OPERATOR								
FLD .		UNKNOWN:  FIELD								
LIC .		UNKNOWN:  AUTHORIZATION NO								
LOC .		VMM:  BASIN								
CTRY.		UNKNOWN:  COUNTRY								
STAT.		UNKNOWN:  STATE								
CNTY.		UNKNOWN:  COUNTY								
PROV.		UNKNOWN:  STATE								
SRVC.		UNKNOWN:  COMPANY								
DATE.		UNKNOWN:  LOG RUN DATE								
LONG.	"	-72.8"	9:  LONGITUDE								
LATI.	"	6.0"	0:  LATITUDE								
XCOORD.	"	1000"	00:  X COORDINATE								
YCOORD.	"	1000"	00:  Y COORDINATE								
ELEV.FT	280.0000:  ELEVATION								
TD  .FT	6869.0005:  TOTAL DEPTH								
~Parameter Information	Block								
#MNEM.UNIT	Value	Description								
#---------	--------	---    ---------------------------								
~Curve Information Block								
#MNEM.UNIT		API CODE     Curve Description								
#---------		-----------    ---------------------------								
DEPTH.F		00 000 000 000:  Index Curve								
DEN.g/cm3		00 000 000 000:								
GR .GAPI		00 000 000 000:								
DT.us/ft		00 : Sonic P wave								
DTS.us/ft		00 : Sonic Shear wave								
PHIE.v/v		00 : Effective porosity from Petrophysics								
VSH.v/v			00 : Volume of Shale from Petrophysics							
SW.v/v			00 : Water Saturation from Petrophysics							
ROCKTYPE.		00 : Rocktype from Petrophysics								
ROCK_VSH.		00 : Shale - Sand from Vsh cutoff from Petrophysics								
										
~A DEPTH	DEN	GR	DT	DTS	PHIE	VSH	SW	ROCKTYPE	ROCK_VSH	
# ...
4684.5	2.382	81.78	94.35	165.12	0.142	0.262	0.173	4	1	
4685.0	2.383	77.56	94.19	164.84	0.143	0.265	0.182	4	1	
4685.5	2.371	79.1	94.83	165.31	0.155	0.262	0.173	3	1	
4686.0	2.385	71.88	95.32	166.81	0.155	0.262	0.174	3	1	
4686.5	2.390	71.05	95.89	169.53	0.155	0.253	0.161	3	1	
4687.0	2.400	66.01	96.73	171.24	0.141	0.285	0.151	3	1	
4687.5	2.412	65.78	96.11	170.69	0.141	0.315	0.153	4	1	
4688.0	2.423	58.55	95.02	170.14	0.133	0.333	0.141	4	1	
4688.5	2.412	55.84	95.05	170.39	0.125	0.352	0.145	4	1	
4689.0	2.410	59.78	91.55	172.18	0.114	0.433	0.144	5	1	
4689.5	2.413	68.99	89.71	174.74	0.103	0.563	0.161	5	1	
4690.0	2.443	81.79	91.32	177.29	0.071	0.653	0.002	8	0	
4690.5	2.470	84.2	90.4	179.85	0.063	0.672	0.005	8	0	
4691.0	2.475	87.27	90.42	182.4	0.063	0.665	0.002	8	0	
4691.5	2.464	82.01	91.91	184.96	0.065	0.623	0.004	8	0	
4692.0	2.445	78.26	93.01	188.27	0.071	0.563	0.005	8	0	
4692.5	2.425	79.58	92.26	192.02	0.085	0.524	0.001	8	0	
4693.0	2.420	76.32	91.37	195.42	0.092	0.482	0.161	5	0	
4693.5	2.415	79.19	91.45	198.83	0.102	0.491	0.161	5	1	
4694.0	2.421	74.58	92	201.38	0.091	0.513	0.182	5	1	
4694.5	2.423	77.09	93.48	203.88	0.092	0.525	0.062	5	0	
4695.0	2.434	75.34	93.13	207.16	0.093	0.483	0.201	5	0	
4695.5	2.430	73.15	92.41	210.45	0.101	0.474	0.203	5	1	
4696.0	2.435	70.11	93.14	213.73	0.105	0.493	0.195	5	1	
4696.5	2.454	69.24	97.21	217.02	0.091	0.502	0.184	5	1	
4697.0	2.430	70.75	101.16	218.69	0.103	0.442	0.165	5	0	
4697.5	2.403	74.74	100.8	220.46	0.124	0.374	0.152	4	1	
4698.0	2.364	72.99	99.96	223.96	0.143	0.352	0.132	3	1	
4698.5	2.360	75.72	98.63	221.44	0.143	0.393	0.112	3	1	
4699.0	2.380	71.55	96.38	214.64	0.135	0.463	0.114	4	1	
4699.5	2.415	75.28	93.63	209.61	0.103	0.573	0.132	5	1	
4700.0	2.445	82.08	91.6	202.32	0.082	0.612	0.002	8	0	
4700.5	2.451	86.46	89.76	192.61	0.074	0.604	0.001	8	0	
4701.0	2.440	86.9	88.97	187.79	0.084	0.592	0.002	8	0	
4701.5	2.445	77.1	88	192.92	0.081	0.633	0.004	8	0	
4702.0	2.455	75.56	87.19	198.09	0.071	0.701	0.004	8	0	
4702.5	2.454	79.29	89.57	195.97	0.063	0.751	0.005	8	0	
4703.0	2.453	89.01	93.36	197.91	0.052	0.762	0.004	8	0	
4703.5	2.430	96.64	97.56	208.84	0.055	0.714	0.003	8	0	
4704.0	2.402	93.79	102.59	223.62	0.072	0.623	0.001	8	0	
4704.5	2.373	86.12	104.58	235.86	0.091	0.475	0.003	8	0	
4705.0	2.332	78.57	105.33	241.11	0.135	0.453	0.143	3	1	
4705.5	2.315	76.16	106.96	241.79	0.145	0.522	0.124	3	1	
4706.0	2.322	82.15	104.93	235.03	0.124	0.601	0.143	4	0	
4706.5	2.361	87.34	101.25	226.86	0.091	0.615	0.001	8	0	
4707.0	2.390	88.43	98.3	224.92	0.084	0.585	0.002	8	0	
4707.5	2.402	83.97	96.3	222.41	0.094	0.602	0.003	8	0	
4708.0	2.395	83.54	95.23	218.95	0.083	0.643	0.003	8	0	
4708.5	2.390	81.79	96.03	215.46	0.082	0.673	0.003	8	0	
4709.0	2.404	78.94	97.65	213.5	0.073	0.675	0.002	8	0	
4709.5	2.421	73.46	99.1	214.02	0.072	0.673	0.003	8	0	
4710.0	2.432	74.33	101.87	214.69	0.074	0.621	0.003	8	0	
4710.5	2.424	75.43	104.5	216.99	0.082	0.593	0.003	8	0	
4711.0	2.383	78.41	105.4	223.18	0.105	0.593	0.003	8	0	
4711.5	2.342	80.38	106.65	225.23	0.101	0.605	0.004	8	0	
4712.0	2.323	82.14	106.74	218.85	0.104	0.595	0.005	8	0	
4712.5	2.335	81.41	103.1	214.92	0.112	0.581	0.005	8	0	
4713.0	2.320	77.47	99.41	214.92	0.112	0.635	0.003	8	0	
4713.5	2.345	79.66	100.21	214.08	0.094	0.675	0.003	8	0	
4714.0	2.363	80.91	102.53	214.32	0.084	0.703	0.002	8	0	
4714.5	2.402	85.08	101.3	217.17	0.073	0.702	0.001	8	0	
4715.0	2.421	82.64	100.2	221.16	0.061	0.663	0.001	8	0	
4715.5	2.413	83.64	101.45	224.95	0.081	0.602	0.001	8	0	
4716.0	2.393	86.06	102.04	226.7	0.092	0.594	0.114	8	0	
4716.5	2.383	87.62	102.36	223.26	0.102	0.654	0.005	8	0	
4717.0	2.382	87.12	103.11	217.26	0.083	0.644	0.002	8	0	
4717.5	2.390	86.9	103.31	214.92	0.092	0.635	0.003	8	0	
4718.0	2.390	86.9	102.26	214.92	0.094	0.625	0.002	8	0	
4718.5	2.390	85.95	101.1	215.13	0.095	0.564	0.105	8	0	
4719.0	2.392	83.61	99.72	215.58	0.104	0.533	0.114	8	0	
4719.5	2.385	82.29	98.52	217.07	0.115	0.483	0.144	4	0	
4720.0	2.362	85.36	97.99	216.67	0.123	0.514	0.145	4	1	
4720.5	2.374	84.39	97.5	211.34	0.113	0.635	0.145	5	0	
4721.0	2.435	88.77	94.47	204.14	0.073	0.743	0.001	8	0	
4721.5	2.481	90.88	91.75	198.3	0.053	0.813	0.003	8	0	
4722.0	2.522	93.32	91.93	198.13	0.043	0.813	0.004	8	0	
4722.5	2.525	96.82	92.29	201.65	0.043	0.793	0.004	8	0	
4723.0	2.501	95.35	92.83	202.7	0.044	0.773	0.001	8	0	
4723.5	2.494	105	92.7	201.81	0.051	0.741	0.003	8	0	
4724.0	2.475	101.27	92.47	198.9	0.053	0.702	0.003	8	0	
4724.5	2.470	99.98	92.73	196.21	0.064	0.681	0.003	8	0	
4725.0	2.465	91.38	93.64	195	0.063	0.715	0.004	8	0	
4725.5	2.453	89.84	94.3	192.53	0.062	0.703	0.001	8	0	
4726.0	2.475	88.38	95	189.2	0.065	0.624	0.002	8	0	
4726.5	2.465	84.92	96.85	187.22	0.071	0.542	0.005	8	0	
4727.0	2.441	80.98	98.49	187.7	0.093	0.472	0.164	5	0	
4727.5	2.410	76.44	98.65	187.75	0.111	0.444	0.154	5	1	
4728.0	2.402	78.41	98.03	186.96	0.125	0.311	0.153	4	1	
4728.5	2.405	79.29	98.13	187.08	0.155	0.233	0.153	3	1	
4729.0	2.363	80.82	99.53	188.46	0.171	0.274	0.154	2	1	
4729.5	2.354	81.04	101.38	191.43	0.172	0.315	0.151	2	1	
4730.0	2.351	82.57	101.72	193.56	0.152	0.312	0.174	2	1	
4730.5	2.403	89.31	101.72	193.94	0.152	0.271	0.163	3	1	
4731.0	2.414	88.43	102.48	200.18	0.165	0.255	0.175	2	1	
4731.5	2.382	86.02	102.98	207.55	0.181	0.193	0.164	2	1	
4732.0	2.323	83.8	103.47	207.33	0.214	0.145	0.151	1	1	
4732.5	2.290	85.55	103.96	207.09	0.232	0.115	0.143	1	1	
4733.0	2.273	93.22	104.45	209.33	0.234	0.123	0.135	1	1	
4733.5	2.255	86.18	104.03	209.97	0.243	0.104	0.123	1	1	
4734.0	2.223	83.33	101.54	208.3	0.262	0.093	0.102	1	1	
4734.5	2.210	72.37	97.88	202.95	0.261	0.101	0.104	1	1	
4735.0	2.243	75.4	94.23	195.66	0.254	0.112	0.115	1	1	
4735.5	2.273	76.5	90.58	187.06	0.245	0.121	0.125	1	1	
4736.0	2.301	77.59	88.15	179.68	0.225	0.254	0.123	1	1	
4736.5	2.353	75.86	87.29	177.77	0.182	0.431	0.123	2	1	
4737.0	2.411	79.29	87.49	177.68	0.121	0.545	0.143	4	1	
4737.5	2.445	84.52	89.51	181.85	0.093	0.622	0.162	5	0	
4738.0	2.443	89.51	89.48	188.82	0.085	0.735	0.002	8	0	
4738.5	2.422	93.76	88.59	193.83	0.063	0.764	0.002	8	0	
4739.0	2.432	91.81	91.08	197.24	0.063	0.795	0.004	8	0	
4739.5	2.445	90.06	92.8	198.19	0.054	0.792	0.002	8	0	
4740.0	2.452	84.58	92.86	197.76	0.052	0.772	0.003	8	0	
4740.5	2.452	84.8	92.98	196.68	0.054	0.795	0.001	8	0	
4741.0	2.450	86.16	92.51	193.32	0.055	0.765	0.002	8	0	
4741.5	2.462	91.12	89.86	188.08	0.051	0.795	0.003	8	0	
4742.0	2.470	97.04	89.6	184.35	0.052	0.815	0.004	8	0	
4742.5	2.481	96.38	93.54	181.75	0.042	0.854	0.005	8	0	
4743.0	2.504	89.9	97.47	178.94	0.034	0.831	0.003	8	0	
4743.5	2.515	89.03	101.41	181.95	0.043	0.815	0.001	8	0	
4744.0	2.492	91.66	103.4	187.24	0.045	0.601	0.003	8	0	
4744.5	2.441	91.38	103.17	195.89	0.094	0.431	0.135	8	0	
4745.0	2.393	83.7	102.17	199.62	0.131	0.335	0.131	4	1	
4745.5	2.370	72.96	102.85	197.02	0.153	0.321	0.155	3	1	
4746.0	2.362	73.74	104.21	199.04	0.153	0.344	0.164	3	1	
4746.5	2.371	73.08	103.98	201.53	0.152	0.364	0.182	3	1	
4747.0	2.362	79	101.76	206.44	0.154	0.362	0.171	3	1	
4747.5	2.343	70.96	99.72	209.96	0.154	0.393	0.171	2	1	
4748.0	2.335	70.08	99.64	209.82	0.155	0.442	0.161	3	1	
4748.5	2.344	72.32	98.85	208.35	0.135	0.574	0.163	3	1	
4749.0	2.385	79.19	97.62	205.13	0.103	0.744	0.001	8	0	
4749.5	2.421	85.11	95.44	201.58	0.064	0.804	0.003	8	0	
4750.0	2.465	88.36	93.69	203.25	0.051	0.812	0.004	8	0	
4750.5	2.485	92.5	93.82	205.79	0.041	0.814	0.005	8	0	
4751.0	2.505	91.84	94.24	204.67	0.045	0.812	0.004	8	0	
4751.5	2.515	92.06	94.81	200.83	0.043	0.812	0.004	8	0	
4752.0	2.523	90.33	95.59	195.95	0.041	0.814	0.001	8	0	
4752.5	2.520	91.44	96.01	201.24	0.045	0.833	0.005	8	0	
4753.0	2.531	95.82	95.54	209.93	0.034	0.845	0.001	8	0	
4753.5	2.525	96.7	95.91	211.94	0.034	0.851	0.005	8	0	
4754.0	2.493	99.17	96.32	212.79	0.034	0.825	0.001	8	0	
4754.5	2.472	93.03	95.88	214.01	0.045	0.802	0.005	8	0	
4755.0	2.474	94.35	96.27	215.26	0.042	0.804	0.002	8	0	
4755.5	2.480	95.39	96.38	208.65	0.045	0.815	0.001	8	0	
4756.0	2.483	100.65	97.33	203.17	0.044	0.803	0.002	8	0	
4756.5	2.485	103.94	98.74	204.85	0.044	0.754	0.002	8	0	
4757.0	2.463	105.15	98.93	205.99	0.052	0.701	0.003	8	0	
