~Version Information									
VERS.		2.0:   CWLS log ASCII Standard -VERSION 2.0								
WRAP.		NO:   One line per depth step								
~Well Information Block									
#MNEM.UNIT	Data T	ype    Information								
#---------	--------	---    ---------------------------								
STRT.F		3380.0000:								
STOP.F		6790:00:00								
STEP.F		0.5000:								
NULL.		-999.2500:								
UWI .		EJEMPLO:  UWI								
API .		EJEMPLO:  UWI								
WELL.		EJEMPLO:  COMMON WELL NAME								
COMP.		UNKNOWN:  WELL OPERATOR								
FLD .		UNKNOWN:  FIELD								
LIC .		UNKNOWN:  AUTHORIZATION NO								
LOC .		VMM:  BASIN								
CTRY.		UNKNOWN:  COUNTRY								
STAT.		UNKNOWN:  STATE								
CNTY.		UNKNOWN:  COUNTY								
PROV.		UNKNOWN:  STATE								
SRVC.		UNKNOWN:  COMPANY								
DATE.		UNKNOWN:  LOG RUN DATE								
LONG.	"	-72.8"	9:  LONGITUDE								
LATI.	"	6.0"	0:  LATITUDE								
XCOORD.	"	1000"	00:  X COORDINATE								
YCOORD.	"	1000"	00:  Y COORDINATE								
ELEV.FT	280.0000:  ELEVATION								
TD  .FT	6869.0005:  TOTAL DEPTH								
~Parameter Information	Block								
#MNEM.UNIT	Value	Description								
#---------	--------	---    ---------------------------								
~Curve Information Block								
#MNEM.UNIT		API CODE     Curve Description								
#---------		-----------    ---------------------------								
DEPTH.F		00 000 000 000:  Index Curve								
DEN.g/cm3		00 000 000 000:								
GR .GAPI		00 000 000 000:								
DT.us/ft		00 : Sonic P wave								
DTS.us/ft		00 : Sonic Shear wave								
PHIE.v/v		00 : Effective porosity from Petrophysics								
VSH.v/v			00 : Volume of Shale from Petrophysics							
SW.v/v			00 : Water Saturation from Petrophysics							
ROCKTYPE.		00 : Rocktype from Petrophysics								
ROCK_VSH.		00 : Shale - Sand from Vsh cutoff from Petrophysics								
										
~A DEPTH	DEN	GR	DT	DTS	PHIE	VSH	SW	ROCKTYPE	ROCK_VSH	
# ...
4465.0	2.415	73.96	93.95	200.17	0.052	0.705	0.142	8	0	
4465.5	2.394	68.99	92.61	199.29	0.061	0.705	0.161	8	0	
4466.0	2.380	66.24	91.2	198.73	0.061	0.734	0.152	8	0	
4466.5	2.370	68.21	89.79	197.11	0.053	0.751	0.173	8	0	
4467.0	2.370	63.7	88.38	194.9	0.054	0.774	0.163	8	0	
4467.5	2.382	60.02	86.93	193.52	0.045	0.815	0.174	8	0	
4468.0	2.390	59.97	85.05	192.14	0.034	0.853	0.004	8	0	
4468.5	2.412	65.94	83.9	190.76	0.021	0.935	0.002	8	0	
4469.0	2.444	70.87	84.46	189.38	0.015	1.003	0.003	8	0	
4469.5	2.474	74.13	85.63	189.51	0.005	1.001	0.002	8	0	
4470.0	2.480	86.63	87.5	191.15	0.003	1.001	0.005	8	0	
4470.5	2.474	95.95	90.18	192.79	0.005	0.981	0.004	8	0	
4471.0	2.464	100.43	92.6	194.44	0.001	0.915	0.003	8	0	
4471.5	2.464	95.82	94.91	196.08	0.023	0.865	0.001	8	0	
4472.0	2.464	89.54	97.48	196.32	0.021	0.813	0.004	8	0	
4472.5	2.431	85.28	99.07	194.59	0.034	0.745	0.001	8	0	
4473.0	2.425	80.02	100.52	198.24	0.055	0.734	0.203	8	0	
4473.5	2.391	79.29	102.42	207.36	0.054	0.733	0.161	8	0	
4474.0	2.370	71.8	103.6	218.22	0.051	0.735	0.163	8	0	
4474.5	2.352	73.22	104.65	228.74	0.052	0.745	0.161	8	0	
4475.0	2.331	73	105.06	231.54	0.052	0.741	0.152	8	0	
4475.5	2.324	75.73	103.67	229.24	0.055	0.781	0.142	8	0	
4476.0	2.334	70.58	101.01	226.94	0.055	0.805	0.133	8	0	
4476.5	2.353	59.25	98.15	224.64	0.041	0.791	0.001	8	0	
4477.0	2.375	58.5	96.6	222.55	0.043	0.813	0.133	8	0	
4477.5	2.384	56.75	96.22	220.19	0.033	0.843	0.002	8	0	
4478.0	2.404	72.04	95.85	217.31	0.032	0.825	0.005	8	0	
4478.5	2.402	82.89	95.87	215.4	0.032	0.805	0.002	8	0	
4479.0	2.395	85.75	95.54	212.39	0.042	0.822	0.005	8	0	
4479.5	2.381	82.67	94.45	207.34	0.045	0.772	0.002	8	0	
4480.0	2.385	78.36	92.88	202.29	0.053	0.722	0.142	8	0	
4480.5	2.385	83.39	89.56	197.24	0.053	0.772	0.125	8	0	
4481.0	2.393	84.21	85.58	192.19	0.045	0.883	0.123	8	0	
4481.5	2.400	84.43	83.9	187.14	0.024	0.982	0.003	8	0	
4482.0	2.411	82.46	83.9	184.58	0.004	0.994	0.005	8	0	
4482.5	2.415	80.96	83.9	183.54	0.004	0.953	0.002	8	0	
4483.0	2.414	81.1	83.9	181.66	0.012	0.965	0.005	8	0	
4483.5	2.433	83.31	83.9	179.92	0.014	1.001	0.001	8	0	
4484.0	2.432	81.57	83.9	178.17	0.002	1.001	0.004	8	0	
4484.5	2.443	79.7	83.37	176.43	0.003	1.002	0.005	8	0	
4485.0	2.431	80.57	85.45	174.69	0.005	1.002	0.004	8	0	
4485.5	2.431	81.77	90.65	173.42	0.001	1.004	0.003	8	0	
4486.0	2.431	82.55	95.21	173.99	0.003	0.982	0.004	8	0	
4486.5	2.414	79.96	98.56	177.19	0.004	0.933	0.002	8	0	
4487.0	2.390	80.74	101.35	181.27	0.014	0.811	0.003	8	0	
4487.5	2.363	73.06	104.1	184.31	0.044	0.784	0.003	8	0	
4488.0	2.342	69.28	105.56	186.69	0.053	0.782	0.105	8	0	
4488.5	2.341	64.66	104.31	189.06	0.054	0.811	0.094	8	0	
4489.0	2.342	61.29	101.39	191.44	0.041	0.831	0.002	8	0	
4489.5	2.352	55.16	97.95	193.82	0.034	0.841	0.001	8	0	
4490.0	2.352	45.98	94.86	196.2	0.033	0.894	0.003	8	0	
4490.5	2.362	48.74	92.08	198.82	0.023	1.005	0.001	8	0	
4491.0	2.375	60.36	89.82	200.67	0.004	0.983	0.005	8	0	
4491.5	2.395	78.38	88.8	200.22	0.005	0.934	0.004	8	0	
4492.0	2.393	86.46	89.16	198.88	0.013	0.841	0.005	8	0	
4492.5	2.390	91.26	90.55	197.92	0.035	0.732	0.002	8	0	
4493.0	2.385	94.26	91.52	196.97	0.051	0.695	0.172	8	0	
4493.5	2.371	93.2	91.57	193.93	0.062	0.693	0.152	8	0	
4494.0	2.365	81.15	91.04	189.81	0.061	0.685	0.151	8	0	
4494.5	2.353	74.79	89.59	186.67	0.061	0.631	0.151	8	0	
4495.0	2.350	65.32	87.71	183.54	0.074	0.594	0.145	8	0	
4495.5	2.375	64.84	87.2	177.87	0.084	0.553	0.145	8	0	
4496.0	2.374	57.83	87.57	173.27	0.084	0.525	0.101	5	0	
4496.5	2.383	60.76	89.43	176.06	0.093	0.584	0.101	5	0	
4497.0	2.384	60.76	91.47	186.43	0.084	0.723	0.144	8	0	
4497.5	2.385	62.95	92.88	195.63	0.052	0.814	0.164	8	0	
4498.0	2.371	70.96	93.24	200.99	0.044	0.892	0.002	8	0	
4498.5	2.370	79.79	91.64	202.04	0.023	1.004	0.004	8	0	
4499.0	2.380	86	89.9	198.07	0.005	1.002	0.005	8	0	
4499.5	2.415	87.79	87.96	189.87	0.003	1.003	0.005	8	0	
4500.0	2.433	82.3	85.77	182.76	0.001	0.975	0.003	8	0	
4500.5	2.442	80.52	83.33	174	0.015	0.881	0.005	8	0	
4501.0	2.445	76.01	82.04	162.96	0.024	0.801	0.002	8	0	
4501.5	2.431	77.54	82.94	160.14	0.034	0.781	0.005	8	0	
4502.0	2.422	73.77	84.91	162.56	0.045	0.834	0.195	8	0	
4502.5	2.413	73.99	87.11	167.5	0.034	0.862	0.001	8	0	
4503.0	2.393	74.63	89.37	173.03	0.035	0.781	0.005	8	0	
4503.5	2.373	81.43	91.91	177.2	0.041	0.673	0.125	8	0	
4504.0	2.344	74.94	94	179.7	0.075	0.612	0.091	8	0	
4504.5	2.341	72.74	94.7	182.31	0.085	0.631	0.091	8	0	
4505.0	2.343	63.32	94.07	184.93	0.083	0.605	0.105	8	0	
4505.5	2.345	66.32	92.85	187.54	0.093	0.581	0.112	8	0	
4506.0	2.345	67.52	93	188.08	0.092	0.552	0.095	8	0	
4506.5	2.344	73	94.35	189.86	0.102	0.553	0.093	5	0	
4507.0	2.333	72.97	95.68	194.97	0.101	0.565	0.063	8	0	
4507.5	2.321	72.68	96.46	200.08	0.104	0.625	0.062	8	0	
4508.0	2.321	67.11	95.5	205.15	0.081	0.655	0.074	8	0	
4508.5	2.332	67.62	94.91	209.02	0.083	0.654	0.084	8	0	
4509.0	2.330	66.3	93.87	210.39	0.083	0.674	0.082	8	0	
4509.5	2.350	69.31	91.94	209.59	0.073	0.752	0.081	8	0	
4510.0	2.373	72.84	91.24	208.16	0.055	0.871	0.104	8	0	
4510.5	2.394	75.91	90.7	206.88	0.032	0.925	0.001	8	0	
4511.0	2.412	80.64	90.15	205.6	0.025	0.941	0.001	8	0	
4511.5	2.400	80.66	90.69	204.32	0.011	0.951	0.005	8	0	
4512.0	2.414	81.21	91.29	203.04	0.013	0.982	0.005	8	0	
4512.5	2.422	83.42	90.82	201.77	0.003	1.003	0.002	8	0	
4513.0	2.420	86.12	89.95	198.29	0.004	1.004	0.001	8	0	
4513.5	2.420	84.7	88.29	193.83	0.003	1.003	0.004	8	0	
4514.0	2.420	88.79	87.05	188.84	0.004	1.001	0.005	8	0	
4514.5	2.430	89.37	86.86	184.73	0.001	1.001	0.004	8	0	
4515.0	2.440	89.26	86.84	183.24	0.005	1.005	0.003	8	0	
4515.5	2.430	87.76	86.86	181.76	0.005	1.004	0.005	8	0	
4516.0	2.423	89.07	86.35	179.86	0.005	1.004	0.005	8	0	
4516.5	2.411	90.35	85.17	178.7	0.002	1.004	0.001	8	0	
4517.0	2.435	82.81	83.95	178.7	0.003	1.004	0.002	8	0	
4517.5	2.473	73.6	83.02	178.7	0.004	1.005	0.003	8	0	
4518.0	2.471	73.85	82.89	178.7	0.001	1.001	0.005	8	0	
4518.5	2.475	82.61	83.92	180.94	0.003	1.005	0.001	8	0	
4519.0	2.452	88.31	84.98	184	0.002	1.001	0.005	8	0	
4519.5	2.440	93.25	85.86	185.46	0.002	0.993	0.005	8	0	
4520.0	2.440	85.77	87.79	186.88	0.002	0.972	0.003	8	0	
4520.5	2.441	88.63	89.24	188.45	0.014	0.962	0.005	8	0	
4521.0	2.440	82.49	88.9	190.02	0.011	0.982	0.001	8	0	
4521.5	2.424	82.49	87.81	191.59	0.004	1.001	0.005	8	0	
4522.0	2.400	83.14	86.61	193.39	0.001	1.005	0.004	8	0	
4522.5	2.404	86.84	85.41	193.45	0.005	1.002	0.003	8	0	
4523.0	2.405	85.71	84.21	191.23	0.003	1.003	0.004	8	0	
4523.5	2.412	80.3	83.57	189.84	0.002	1.003	0.001	8	0	
4524.0	2.423	80.8	82.95	189.62	0.002	1.003	0.004	8	0	
4524.5	2.444	80.8	82.94	189.4	0.003	1.002	0.004	8	0	
4525.0	2.451	82.81	85.61	189.18	0.005	1.005	0.005	8	0	
4525.5	2.441	81.23	88.62	188.96	0.004	0.972	0.002	8	0	
4526.0	2.432	81.11	89.82	188.74	0.012	0.813	0.004	8	0	
4526.5	2.405	78.81	92.51	188.52	0.042	0.501	0.003	8	0	
4527.0	2.372	75.85	97.92	188.29	0.112	0.262	0.114	4	0	
4527.5	2.322	73.6	101.86	188.07	0.173	0.175	0.112	2	1	
4528.0	2.302	71.84	102.78	187.85	0.214	0.101	0.105	1	1	
4528.5	2.273	71.62	102.8	188.93	0.231	0.073	0.095	1	1	
4529.0	2.243	69.17	102.33	188.99	0.253	0.052	0.082	1	1	
4529.5	2.230	70.47	100.4	188.33	0.262	0.053	0.071	1	1	
4530.0	2.240	68.61	97.63	189.28	0.253	0.125	0.084	1	1	
4530.5	2.272	75.82	95.12	190.24	0.224	0.181	0.101	1	1	
4531.0	2.300	73.32	94.01	191.2	0.193	0.244	0.114	2	1	
4531.5	2.325	69.15	94.83	192.16	0.173	0.305	0.135	2	1	
4532.0	2.342	59.31	96.27	193.12	0.155	0.661	0.131	3	1	
4532.5	2.353	59.58	96.67	194.08	0.075	0.772	0.114	8	0	
4533.0	2.361	59.07	96.17	195.03	0.051	0.844	0.133	8	0	
4533.5	2.370	62.8	95.67	195.99	0.033	0.895	0.003	8	0	
4534.0	2.382	59.29	95.62	197.74	0.025	0.953	0.004	8	0	
4534.5	2.392	57.61	95.06	198.08	0.012	0.993	0.004	8	0	
4535.0	2.390	54.95	93.56	196.2	0.002	1.003	0.005	8	0	
4535.5	2.404	58.73	92.06	194.32	0.002	1.004	0.005	8	0	
4536.0	2.402	65.67	91.63	192.45	0.004	1.003	0.005	8	0	
4536.5	2.390	74.7	91.71	189.93	0.004	1.001	0.001	8	0	
4537.0	2.370	85.22	91.16	185.84	0.005	0.954	0.001	8	0	
4537.5	2.342	89.23	90.5	180.81	0.011	0.903	0.001	8	0	
4538.0	2.344	85.27	88.71	175.78	0.022	0.903	0.001	8	0	
