~Version Information									
VERS.		2.0:   CWLS log ASCII Standard -VERSION 2.0								
WRAP.		NO:   One line per depth step								
~Well Information Block									
#MNEM.UNIT	Data T	ype    Information								
#---------	--------	---    ---------------------------								
STRT.F		3380.0000:								
STOP.F		6790:00:00								
STEP.F		0.5000:								
NULL.		-999.2500:								
UWI .		EJEMPLO:  UWI								
API .		EJEMPLO:  UWI								
WELL.		EJEMPLO:  COMMON WELL NAME								
COMP.		UNKNOWN:  WELL OPERATOR								
FLD .		UNKNOWN:  FIELD								
LIC .		UNKNOWN:  AUTHORIZATION NO								
LOC .		VMM:  BASIN								
CTRY.		UNKNOWN:  COUNTRY								
STAT.		UNKNOWN:  STATE								
CNTY.		UNKNOWN:  COUNTY								
PROV.		UNKNOWN:  STATE								
SRVC.		UNKNOWN:  COMPANY								
DATE.		UNKNOWN:  LOG RUN DATE								
LONG.	"	-72.8"	9:  LONGITUDE								
LATI.	"	6.0"	0:  LATITUDE								
XCOORD.	"	1000"	00:  X COORDINATE								
YCOORD.	"	1000"	00:  Y COORDINATE								
ELEV.FT	280.0000:  ELEVATION								
TD  .FT	6869.0005:  TOTAL DEPTH								
~Parameter Information	Block								
#MNEM.UNIT	Value	Description								
#---------	--------	---    ---------------------------								
~Curve Information Block								
#MNEM.UNIT		API CODE     Curve Description								
#---------		-----------    ---------------------------								
DEPTH.F		00 000 000 000:  Index Curve								
DEN.g/cm3		00 000 000 000:								
GR .GAPI		00 000 000 000:								
DT.us/ft		00 : Sonic P wave								
DTS.us/ft		00 : Sonic Shear wave								
PHIE.v/v		00 : Effective porosity from Petrophysics								
VSH.v/v			00 : Volume of Shale from Petrophysics							
SW.v/v			00 : Water Saturation from Petrophysics							
ROCKTYPE.		00 : Rocktype from Petrophysics								
ROCK_VSH.		00 : Shale - Sand from Vsh cutoff from Petrophysics								
										
~A DEPTH	DEN	GR	DT	DTS	PHIE	VSH	SW	ROCKTYPE	ROCK_VSH	
# ...
3808.0	2.455	140.07	97.42	202.57	0.005	1.001	0.004	8	0	
3808.5	2.444	126.3	97.68	205.57	0.005	1.001	0.001	8	0	
3809.0	2.423	120.93	97.68	207.33	0.004	1.001	0.002	8	0	
3809.5	2.411	117.92	97.68	207.33	0.002	1.003	0.002	8	0	
3810.0	2.424	118.17	97.68	206.8	0.005	1.004	0.001	8	0	
3810.5	2.442	120.8	97.68	206.28	0.001	1.005	0.001	8	0	
3811.0	2.451	119.04	97.27	205.76	0.005	0.924	0.005	8	0	
3811.5	2.455	128.31	97.02	205.23	0.025	0.901	0.005	8	0	
3812.0	2.445	124.79	97.05	204.71	0.034	1.005	0.004	8	0	
3812.5	2.430	119.85	96.52	204.19	0.005	1.002	0.004	8	0	
3813.0	2.445	114.13	95.47	203.67	0.005	1.001	0.001	8	0	
3813.5	2.460	120.1	94.4	201	0.005	1.005	0.005	8	0	
3814.0	2.464	118.02	93.68	196.12	0.001	1.004	0.001	8	0	
3814.5	2.465	117.73	93.03	191.7	0.002	1.002	0.001	8	0	
3815.0	2.451	113.01	92.18	188.39	0.003	1.005	0.003	8	0	
3815.5	2.465	115.02	91.33	185.8	0.004	1.001	0.001	8	0	
3816.0	2.480	106.18	90.67	183.89	0.004	1.002	0.004	8	0	
3816.5	2.512	104.38	89.95	182.65	0.002	1.004	0.001	8	0	
3817.0	2.525	103.38	89.52	181.82	0.002	1.003	0.001	8	0	
3817.5	2.525	108.96	89.15	181.92	0.004	1.004	0.003	8	0	
3818.0	2.532	105.57	88.57	182.49	0.003	1.002	0.004	8	0	
3818.5	2.543	98.81	88.07	183.31	0.002	1.004	0.002	8	0	
3819.0	2.542	94.58	87.81	183.21	0.002	1.003	0.002	8	0	
3819.5	2.511	95.47	87.87	181.04	0.001	1.004	0.003	8	0	
3820.0	2.495	100.47	88.35	180.54	0.003	1.005	0.001	8	0	
3820.5	2.461	98.96	88.84	181.43	0.001	1.005	0.004	8	0	
3821.0	2.464	96.21	89.52	182.26	0.002	1.003	0.002	8	0	
3821.5	2.474	93.97	89.91	184.41	0.001	1.003	0.005	8	0	
3822.0	2.504	98.94	89.65	186.25	0.003	1.003	0.001	8	0	
3822.5	2.493	98.62	89.64	186.43	0.003	0.982	0.002	8	0	
3823.0	2.454	90.35	89.2	185.02	0.001	0.944	0.001	8	0	
3823.5	2.411	83.87	88.95	184.6	0.011	0.963	0.003	8	0	
3824.0	2.394	82.94	90.12	185.78	0.012	1.003	0.005	8	0	
3824.5	2.401	86.7	90.98	188.42	0.001	1.003	0.001	8	0	
3825.0	2.420	86.42	92.23	192.8	0.005	1.002	0.005	8	0	
3825.5	2.434	84.94	94.35	195.48	0.005	0.925	0.004	8	0	
3826.0	2.414	82.68	95.04	196.06	0.023	0.953	0.004	8	0	
3826.5	2.385	82.46	94.52	194.65	0.013	0.945	0.001	8	0	
3827.0	2.385	81.69	93.71	191.94	0.012	0.851	0.001	8	0	
3827.5	2.400	88.51	93.18	188.34	0.034	0.741	0.003	8	0	
3828.0	2.405	89.26	93.48	183.38	0.051	0.722	0.104	8	0	
3828.5	2.381	95.52	93.69	181.65	0.061	0.742	0.083	8	0	
3829.0	2.371	94.97	93.37	182.27	0.061	0.571	0.071	8	0	
3829.5	2.381	99.73	93.16	182.34	0.105	0.862	0.003	8	0	
3830.0	2.414	97.75	91.96	181.87	0.033	0.875	0.005	8	0	
3830.5	2.435	91.95	91.93	181.41	0.034	0.645	0.001	8	0	
3831.0	2.434	85.19	92.24	181.2	0.074	0.622	0.005	8	0	
3831.5	2.420	81.66	90.59	179.74	0.081	0.594	0.005	8	0	
3832.0	2.420	84.95	89.31	177.45	0.083	0.572	0.001	8	0	
3832.5	2.421	87.92	89.26	176.38	0.093	0.571	0.082	8	0	
3833.0	2.404	95.62	90.75	178.74	0.092	0.543	0.063	8	0	
3833.5	2.395	95.36	94.48	184.67	0.103	0.424	0.085	5	0	
3834.0	2.394	95.65	98.34	190.51	0.133	0.242	0.081	4	1	
3834.5	2.381	88.21	100.49	194.27	0.173	0.145	0.072	2	1	
3835.0	2.351	87.7	102.31	198.31	0.205	0.102	0.063	2	1	
3835.5	2.305	84.67	104.05	202.9	0.221	0.064	0.042	1	1	
3836.0	2.242	80.27	105.4	206.49	0.255	0.051	0.022	1	1	
3836.5	2.225	73.75	106.22	209.06	0.264	0.054	0.011	1	1	
3837.0	2.213	70.27	104.83	210.02	0.271	0.055	0.013	1	1	
3837.5	2.223	69.41	101.46	206.38	0.264	0.071	0.021	1	1	
3838.0	2.223	65.15	97.07	198.41	0.264	0.075	0.031	1	1	
3838.5	2.234	66.77	90.76	189.13	0.261	0.132	0.044	1	1	
3839.0	2.244	70.52	86.76	181.87	0.232	0.293	0.063	1	1	
3839.5	2.283	78.3	85.97	177.22	0.182	0.425	0.092	2	1	
3840.0	2.314	78.51	85.84	173.77	0.143	0.595	0.105	3	1	
3840.5	2.341	81.55	86.81	172.05	0.102	0.691	0.005	8	0	
3841.0	2.380	84.78	88.26	174.79	0.073	0.751	0.001	8	0	
3841.5	2.433	82.44	89.24	180.16	0.062	0.794	0.004	8	0	
3842.0	2.460	87.92	90.03	182.46	0.052	0.842	0.001	8	0	
3842.5	2.472	88.45	91.34	182.62	0.045	0.871	0.002	8	0	
3843.0	2.474	98.02	91.39	184.46	0.033	0.881	0.002	8	0	
3843.5	2.471	96.02	91.37	186.85	0.037	0.834	0.002	8	0	
3844.0	2.481	98.53	92.73	188.85	0.047	0.811	0.001	8	0	
3844.5	2.482	91.96	93.76	191.76	0.044	0.803	0.003	8	0	
3845.0	2.475	86.45	94.18	193.75	0.046	0.762	0.005	8	0	
3845.5	2.441	82.69	94.27	197.6	0.058	0.742	0.001	8	0	
3846.0	2.444	87.94	94.27	203.44	0.067	0.742	0.003	8	0	
3846.5	2.440	89.19	95.29	206.53	0.065	0.795	0.002	8	0	
3847.0	2.460	93.96	97.02	209.13	0.055	0.792	0.003	8	0	
3847.5	2.471	89.21	99.19	209.22	0.053	0.761	0.001	8	0	
3848.0	2.463	89.32	100.98	206.14	0.054	0.675	0.001	8	0	
3848.5	2.452	85.03	102.17	205.24	0.076	0.471	0.001	8	0	
3849.0	2.424	92.3	101.66	204.61	0.117	0.325	0.114	4	1	
3849.5	2.385	91.18	100.72	202.62	0.154	0.214	0.115	3	1	
3850.0	2.331	93.72	101.42	202.96	0.196	0.151	0.104	2	1	
3850.5	2.314	93.17	101.61	195.03	0.215	0.213	0.114	1	1	
3851.0	2.314	94.21	101.78	196.61	0.215	0.183	0.124	1	1	
3851.5	2.305	90.92	102.21	197.87	0.228	0.153	0.122	1	1	
3852.0	2.295	83.44	102.72	199.01	0.237	0.123	0.102	1	1	
3852.5	2.270	79.41	103.12	199.71	0.24	0.092	0.082	1	1	
3853.0	2.265	76.68	102.84	199.36	0.246	0.075	0.061	1	1	
3853.5	2.265	73.85	102.88	199.38	0.246	0.082	0.042	1	1	
3854.0	2.275	74.13	103.02	199.52	0.242	0.103	0.041	1	1	
3854.5	2.282	78.61	101.14	199.15	0.232	0.144	0.044	1	1	
3855.0	2.300	79.43	98.58	198.4	0.228	0.124	0.055	1	1	
3855.5	2.290	76.48	96.33	196.43	0.236	0.153	0.055	1	1	
3856.0	2.280	66.71	93.29	192.45	0.227	0.292	0.065	1	1	
3856.5	2.304	68.72	95.38	194.42	0.185	0.531	0.085	2	1	
3857.0	2.360	72.89	91.15	193.01	0.112	0.713	0.104	4	0	
3857.5	2.434	82.19	91.43	189.91	0.069	0.745	0.005	8	0	
3858.0	2.460	86.2	92.39	187.53	0.059	0.751	0.003	8	0	
3858.5	2.472	87.28	92.89	186.37	0.053	0.742	0.005	8	0	
3859.0	2.481	86	92.31	186	0.054	0.663	0.005	8	0	
3859.5	2.463	87.51	91.52	185.01	0.077	0.572	0.003	8	0	
3860.0	2.421	87.17	90.26	184.23	0.098	0.591	0.122	8	0	
3860.5	2.403	88.21	89.09	183.78	0.097	0.683	0.005	8	0	
3861.0	2.435	87.71	88.89	184.27	0.079	0.732	0.001	8	0	
3861.5	2.475	88.48	89.67	187	0.057	0.774	0.005	8	0	
3862.0	2.493	84.69	90.76	191.21	0.055	0.771	0.003	8	0	
3862.5	2.492	86.19	91.42	194.72	0.056	0.745	0.003	8	0	
3863.0	2.470	88.68	91.69	196.24	0.056	0.733	0.002	8	0	
3863.5	2.470	91.96	92.5	195.9	0.058	0.731	0.005	8	0	
3864.0	2.471	89.63	93.58	193.19	0.058	0.745	0.003	8	0	
3864.5	2.471	89.67	94.68	190.57	0.054	0.732	0.001	8	0	
3865.0	2.464	93.39	96.25	190.87	0.052	0.681	0.002	8	0	
3865.5	2.452	94.22	96.53	193.14	0.066	0.585	0.005	8	0	
3866.0	2.422	93.23	95.93	194.79	0.095	0.455	0.184	8	0	
3866.5	2.362	88.73	93.74	194.64	0.135	0.373	0.153	4	1	
3867.0	2.303	83.71	93.65	192.49	0.171	0.374	0.133	2	1	
3867.5	2.271	86.12	95.63	197.61	0.175	0.495	0.134	2	1	
3868.0	2.305	85.37	86.78	182.88	0.135	0.681	0.122	3	1	
3868.5	2.370	87.13	85.63	177.58	0.085	0.803	0.005	8	0	
3869.0	2.461	83.69	85.43	175.9	0.043	0.855	0.003	8	0	
3869.5	2.531	82.69	85.5	176.46	0.034	0.851	0.004	8	0	
3870.0	2.554	81.62	85.45	177.2	0.035	0.834	0.002	8	0	
3870.5	2.542	82.62	85.55	176.8	0.032	0.801	0.001	8	0	
3871.0	2.523	83.12	85.82	176.38	0.045	0.772	0.003	8	0	
3871.5	2.513	89.21	85.84	175.96	0.043	0.764	0.004	8	0	
3872.0	2.514	89.45	86.32	175.39	0.041	0.795	0.001	8	0	
3872.5	2.501	99	87.24	177.51	0.043	0.804	0.004	8	0	
3873.0	2.514	89.45	88.56	182.53	0.041	0.842	0.005	8	0	
3873.5	2.522	89.45	89.88	189.6	0.032	0.813	0.004	8	0	
3874.0	2.524	84.69	91.92	194.91	0.043	0.791	0.005	8	0	
3874.5	2.495	91.45	94.18	196.23	0.044	0.761	0.005	8	0	
3875.0	2.475	90.96	94.26	197.47	0.054	0.735	0.004	8	0	
3875.5	2.450	87	93.78	198.67	0.063	0.714	0.003	8	0	
3876.0	2.451	88.79	94.01	198.79	0.064	0.674	0.003	8	0	
3876.5	2.444	87.76	94.44	198.49	0.062	0.683	0.004	8	0	
3877.0	2.434	85.7	95.02	198.31	0.074	0.605	0.004	8	0	
3877.5	2.415	90.48	96.38	198.36	0.095	0.604	0.002	8	0	
3878.0	2.393	92.48	97.72	198.43	0.091	0.653	0.001	8	0	
3878.5	2.405	98.75	97.41	199	0.082	0.623	0.001	8	0	
3879.0	2.415	92.68	98.52	199.73	0.083	0.555	0.004	8	0	
3879.5	2.393	85.7	100.28	200.43	0.112	0.472	0.043	8	0	
3880.0	2.350	80.68	100.93	202.73	0.134	0.371	0.083	3	1	
3880.5	2.321	80.93	101.96	204.9	0.163	0.342	0.092	2	1	
