~Version Information									
VERS.		2.0:   CWLS log ASCII Standard -VERSION 2.0								
WRAP.		NO:   One line per depth step								
~Well Information Block									
#MNEM.UNIT	Data T	ype    Information								
#---------	--------	---    ---------------------------								
STRT.F		3380.0000:								
STOP.F		6790:00:00								
STEP.F		0.5000:								
NULL.		-999.2500:								
UWI .		EJEMPLO:  UWI								
API .		EJEMPLO:  UWI								
WELL.		EJEMPLO:  COMMON WELL NAME								
COMP.		UNKNOWN:  WELL OPERATOR								
FLD .		UNKNOWN:  FIELD								
LIC .		UNKNOWN:  AUTHORIZATION NO								
LOC .		VMM:  BASIN								
CTRY.		UNKNOWN:  COUNTRY								
STAT.		UNKNOWN:  STATE								
CNTY.		UNKNOWN:  COUNTY								
PROV.		UNKNOWN:  STATE								
SRVC.		UNKNOWN:  COMPANY								
DATE.		UNKNOWN:  LOG RUN DATE								
LONG.	"	-72.8"	9:  LONGITUDE								
LATI.	"	6.0"	0:  LATITUDE								
XCOORD.	"	1000"	00:  X COORDINATE								
YCOORD.	"	1000"	00:  Y COORDINATE								
ELEV.FT	280.0000:  ELEVATION								
TD  .FT	6869.0005:  TOTAL DEPTH								
~Parameter Information	Block								
#MNEM.UNIT	Value	Description								
#---------	--------	---    ---------------------------								
~Curve Information Block								
#MNEM.UNIT		API CODE     Curve Description								
#---------		-----------    ---------------------------								
DEPTH.F		00 000 000 000:  Index Curve								
DEN.g/cm3		00 000 000 000:								
GR .GAPI		00 000 000 000:								
DT.us/ft		00 : Sonic P wave								
DTS.us/ft		00 : Sonic Shear wave								
PHIE.v/v		00 : Effective porosity from Petrophysics								
VSH.v/v			00 : Volume of Shale from Petrophysics							
SW.v/v			00 : Water Saturation from Petrophysics							
ROCKTYPE.		00 : Rocktype from Petrophysics								
ROCK_VSH.		00 : Shale - Sand from Vsh cutoff from Petrophysics								
										
~A DEPTH	DEN	GR	DT	DTS	PHIE	VSH	SW	ROCKTYPE	ROCK_VSH	
# ...
4027.0	2.501	105.64	92.94	197.44	0.021	0.911	0.003	8	0	
4027.5	2.494	100.68	94.94	198.07	0.024	0.854	0.005	8	0	
4028.0	2.483	94.27	94.54	194.64	0.034	0.814	0.001	8	0	
4028.5	2.472	81.99	93.3	190.99	0.043	0.762	0.002	8	0	
4029.0	2.450	85.5	92.67	190	0.051	0.674	0.004	8	0	
4029.5	2.433	86	92.56	190.17	0.075	0.601	0.004	8	0	
4030.0	2.413	84.5	93.44	192.71	0.085	0.584	0.003	8	0	
4030.5	2.381	77.92	96.44	196.54	0.094	0.634	0.004	8	0	
4031.0	2.371	78.67	99.81	200.4	0.082	0.721	0.003	8	0	
4031.5	2.382	87.69	100.28	204.79	0.075	0.741	0.002	8	0	
4032.0	2.401	91.2	100.44	208.49	0.073	0.593	0.005	8	0	
4032.5	2.380	89.73	101.22	210.27	0.114	0.341	0.011	8	0	
4033.0	2.331	83.48	101.85	210.28	0.181	0.235	0.114	1	1	
4033.5	2.272	79.96	102.51	210.88	0.214	0.195	0.092	1	1	
4034.0	2.241	79.57	103.17	213.46	0.222	0.091	0.092	1	1	
4034.5	2.240	83.56	104.02	215.53	0.252	0.122	0.095	1	1	
4035.0	2.233	82.81	104.2	216.91	0.252	0.082	0.101	1	1	
4035.5	2.231	80.83	103.96	217.93	0.264	0.072	0.103	1	1	
4036.0	2.213	80.83	104.71	217.7	0.271	0.095	0.102	1	1	
4036.5	2.201	85.09	104.09	217.67	0.274	0.164	0.101	1	1	
4037.0	2.210	86.85	101.72	215.11	0.242	0.262	0.134	1	1	
4037.5	2.233	81.33	99.56	208.92	0.212	0.361	0.141	1	1	
4038.0	2.260	81.61	97.93	203.36	0.184	0.473	0.142	2	1	
4038.5	2.291	84.24	95.58	200.01	0.141	0.614	0.141	3	1	
4039.0	2.355	87.97	94.06	198.08	0.095	0.645	0.004	8	0	
4039.5	2.393	88.59	94.99	197.36	0.082	0.634	0.002	8	0	
4040.0	2.390	89.82	96.28	197.81	0.081	0.624	0.003	8	0	
4040.5	2.362	89.15	97.22	199.17	0.081	0.632	0.004	8	0	
4041.0	2.345	84.75	98.65	200.54	0.091	0.594	0.001	8	0	
4041.5	2.343	82.24	100.22	201.88	0.105	0.575	0.002	8	0	
4042.0	2.340	80.49	100.43	202.77	0.113	0.545	0.001	8	0	
4042.5	2.333	82.52	98.5	202.66	0.123	0.452	0.155	4	0	
4043.0	2.302	82.23	97.09	200.23	0.153	0.402	0.165	2	1	
4043.5	2.283	88.45	97.7	199.71	0.172	0.371	0.163	2	1	
4044.0	2.285	80.18	98.08	202.81	0.172	0.351	0.171	2	1	
4044.5	2.284	77.35	98.39	204.75	0.181	0.244	0.175	1	1	
4045.0	2.260	74.56	99.36	205.33	0.202	0.194	0.184	1	1	
4045.5	2.230	78.85	101.61	206.39	0.223	0.124	0.174	1	1	
4046.0	2.212	79.7	104.12	208.65	0.254	0.103	0.162	1	1	
4046.5	2.203	75.95	105.26	212.54	0.262	0.111	0.152	1	1	
4047.0	2.200	71.56	105.36	215.56	0.263	0.133	0.155	1	1	
4047.5	2.192	65.8	104.83	216.75	0.263	0.163	0.153	1	1	
4048.0	2.192	64.07	105.13	216.61	0.261	0.201	0.165	1	1	
4048.5	2.210	65.6	104.59	213.59	0.232	0.245	0.184	1	1	
4049.0	2.245	66.58	102.01	207.06	0.211	0.283	0.191	1	1	
4049.5	2.262	62.57	99.43	198.56	0.195	0.353	0.182	1	1	
4050.0	2.292	65.2	96.85	193.92	0.161	0.443	0.181	2	1	
4050.5	2.334	68.26	95.86	191.16	0.134	0.584	0.185	3	1	
4051.0	2.380	70.74	96.73	188.19	0.095	0.632	0.005	8	0	
4051.5	2.401	74.2	97.86	189.77	0.085	1.004	0.003	8	0	
4052.0	2.403	80.55	98.98	196.97	0.001	0.652	0.004	8	0	
4052.5	2.354	83.31	101.01	204.8	0.091	0.324	0.143	8	0	
4053.0	2.301	77.44	101.29	205.19	0.184	0.181	0.164	2	1	
4053.5	2.250	63.79	98.09	200.04	0.224	0.145	0.144	1	1	
4054.0	2.232	56.73	93.75	194.16	0.241	0.205	0.144	1	1	
4054.5	2.235	56.83	88.44	187.48	0.223	0.312	0.152	1	1	
4055.0	2.255	60.32	85.72	180.97	0.183	0.344	0.174	1	1	
4055.5	2.282	69.97	86.9	171.9	0.162	0.405	0.163	2	1	
4056.0	2.300	73.73	89.1	167.93	0.153	0.495	0.154	2	1	
4056.5	2.331	78.48	91.74	175.65	0.121	0.984	0.132	4	1	
4057.0	2.371	77.39	95.66	189.11	0.012	1.001	0.005	8	0	
4057.5	2.421	80.4	99.22	199.21	0.001	1.001	0.001	8	0	
4058.0	2.430	83.17	101.21	204.07	0.002	0.823	0.004	8	0	
4058.5	2.434	83.68	102.89	208.94	0.045	0.802	0.001	8	0	
4059.0	2.425	81.64	104.12	213.8	0.051	0.864	0.002	8	0	
4059.5	2.435	80.9	104.84	218.67	0.042	0.825	0.004	8	0	
4060.0	2.431	79.92	104.48	219.7	0.055	0.795	0.004	8	0	
4060.5	2.424	78.83	103.13	214.87	0.051	0.495	0.032	8	0	
4061.0	2.383	77.29	101.28	209.73	0.123	0.302	0.114	4	1	
4061.5	2.324	72.27	100.73	208.75	0.175	0.155	0.133	2	1	
4062.0	2.264	71.4	102.1	210.09	0.221	0.123	0.143	1	1	
4062.5	2.244	69.07	102.35	212.75	0.243	0.084	0.141	1	1	
4063.0	2.241	71.81	101.82	216.26	0.255	0.074	0.161	1	1	
4063.5	2.244	72.06	102.04	215.35	0.255	0.065	0.183	1	1	
4064.0	2.233	72.94	101.79	213.13	0.265	0.052	0.184	1	1	
4064.5	2.220	72.44	101.66	213.25	0.263	0.065	0.181	1	1	
4065.0	2.234	70.69	102.08	213.15	0.261	0.094	0.192	1	1	
4065.5	2.251	67.91	102.42	213.83	0.245	0.102	0.211	1	1	
4066.0	2.272	67.64	103.07	215.07	0.235	0.102	0.225	1	1	
4066.5	2.265	72.2	103.22	216.39	0.242	0.105	0.233	1	1	
4067.0	2.240	77.69	102.8	217.83	0.255	0.135	0.223	1	1	
4067.5	2.243	79.74	103.82	217.62	0.251	0.131	0.215	1	1	
4068.0	2.252	75.35	104.33	214.46	0.244	0.124	0.215	1	1	
4068.5	2.265	69.59	101.73	208.12	0.241	0.093	0.214	1	1	
4069.0	2.263	66.08	97.03	198.72	0.241	0.111	0.202	1	1	
4069.5	2.250	68.27	93.36	190.77	0.245	0.175	0.195	1	1	
4070.0	2.252	68.05	91.88	187.01	0.225	0.302	0.183	1	1	
4070.5	2.271	67.52	90.47	185.98	0.184	0.453	0.194	1	1	
4071.0	2.300	70.16	90.5	187.81	0.143	0.565	0.185	3	1	
4071.5	2.300	73.88	94.16	192.97	0.111	1.004	0.001	8	0	
4072.0	2.262	80.93	99.7	199.14	0.003	1.002	0.003	8	0	
4072.5	2.252	79.89	101.53	205.34	0.003	0.991	0.002	8	0	
4073.0	2.300	84.45	99.73	207.24	0.003	0.862	0.004	8	0	
4073.5	2.354	86.85	97.26	200.26	0.035	0.573	0.002	8	0	
4074.0	2.345	88.1	93.3	192.24	0.102	0.251	0.052	8	0	
4074.5	2.300	84.84	90.02	187.11	0.183	0.261	0.105	2	1	
4075.0	2.294	77.17	89.23	183.66	0.181	0.361	0.103	2	1	
4075.5	2.320	70.68	89.91	182.6	0.155	0.553	0.123	3	1	
4076.0	2.373	65.22	88.98	184.71	0.101	1.005	0.091	5	0	
4076.5	2.435	70.21	92.54	190.49	0.005	1.004	0.002	8	0	
4077.0	2.455	73.72	98.95	197.74	0.004	1.001	0.001	8	0	
4077.5	2.442	77.67	101.78	204.92	0.002	0.932	0.005	8	0	
4078.0	2.421	75.16	104.01	210.48	0.023	0.713	0.005	8	0	
4078.5	2.392	72.43	104.26	211.31	0.073	0.291	0.105	8	0	
4079.0	2.350	69.18	101.62	208.02	0.171	0.224	0.144	2	1	
4079.5	2.291	66.47	97.34	203.91	0.201	0.222	0.121	1	1	
4080.0	2.252	70.18	94.28	199.8	0.214	0.282	0.134	1	1	
4080.5	2.252	66.17	92.85	195.26	0.204	0.412	0.152	1	1	
4081.0	2.294	70.78	91.52	188.98	0.153	0.901	0.175	2	1	
4081.5	2.360	73.06	91.25	183.19	0.023	1.005	0.005	8	0	
4082.0	2.423	84.56	91.71	180.67	0.002	1.004	0.004	8	0	
4082.5	2.443	85.66	91.73	179.63	0.004	1.004	0.002	8	0	
4083.0	2.422	86.16	92.23	178.58	0.001	0.935	0.003	8	0	
4083.5	2.392	82.65	93.28	177.54	0.024	0.953	0.002	8	0	
4084.0	2.361	81.12	95.18	176.49	0.013	1.001	0.003	8	0	
4084.5	2.382	81.12	97.62	180.86	0.005	1.003	0.004	8	0	
4085.0	2.404	81.26	99.63	191.12	0.001	0.974	0.003	8	0	
4085.5	2.421	83.56	101.78	202.16	0.013	0.632	0.002	8	0	
4086.0	2.374	87.81	103.78	212.32	0.081	0.251	0.172	8	0	
4086.5	2.315	92.45	104.92	215.32	0.193	0.115	0.173	1	1	
4087.0	2.252	84.46	105.75	215.6	0.253	0.085	0.185	1	1	
4087.5	2.235	73.06	105.91	219.14	0.253	0.071	0.183	1	1	
4088.0	2.232	65.52	105.43	221.48	0.255	0.084	0.194	1	1	
4088.5	2.232	65.77	104.88	222.49	0.253	0.081	0.203	1	1	
4089.0	2.230	67.52	104.26	223.37	0.254	0.062	0.204	1	1	
4089.5	2.241	63.27	104.03	223.54	0.254	0.053	0.195	1	1	
4090.0	2.250	59.25	107.01	222.49	0.253	0.052	0.194	1	1	
4090.5	2.250	51.36	108.57	221.71	0.241	0.052	0.195	1	1	
4091.0	2.243	49.63	107.29	221.71	0.252	0.053	0.171	1	1	
4091.5	2.242	48.34	106.39	221.48	0.252	0.061	0.162	1	1	
4092.0	2.241	53.33	105.68	221.83	0.243	0.121	0.154	1	1	
4092.5	2.255	52.08	105.71	223.01	0.221	0.223	0.173	1	1	
4093.0	2.283	54.71	105.24	224.19	0.194	0.271	0.201	2	1	
4093.5	2.301	52.71	104.47	225.37	0.171	0.183	0.222	2	1	
4094.0	2.304	57.59	103.27	225.25	0.203	0.132	0.225	1	1	
4094.5	2.274	57.5	101.69	222.54	0.221	0.123	0.193	1	1	
4095.0	2.244	54.94	100.46	217.85	0.233	0.155	0.174	1	1	
4095.5	2.245	52.3	99.55	213.64	0.231	0.232	0.165	1	1	
4096.0	2.280	49.8	98.7	211.37	0.191	0.332	0.195	1	1	
4096.5	2.354	53.74	97.79	209.93	0.151	0.385	0.234	3	1	
4097.0	2.402	56.77	96.97	209.33	0.125	0.334	0.243	4	1	
4097.5	2.390	61.51	96.38	208.38	0.131	0.311	0.222	4	1	
4098.0	2.360	57.34	97.41	205.62	0.154	0.315	0.203	3	1	
4098.5	2.351	53.33	98.74	203.48	0.151	0.342	0.193	3	1	
4099.0	2.362	54.04	99.32	203.42	0.143	0.512	0.191	3	1	
